,CounterID,CounterTitle,Date,Lat,Long,Unnamed: 0,Unnamed: 0.1,Unnamed: 0.1.1
0,100000445,Sabrina Footbridge - Cycle,1/1/2011,52.1945,-2.2316263,0.0,0.0,0.0
1,100000446,Sabrina Footbridge - Pedestrian,1/1/2011,52.19431305,-2.2320091719999997,1.0,1.0,1.0
2,100000447,Diglis FootBridge - Pedestrian,1/1/2011,52.1764,-2.2243762,2.0,2.0,2.0
3,100000448,Diglis FootBridge - Cycle,1/1/2011,52.177166,-2.2245512,3.0,3.0,3.0
4,100000518,NCC Eastern Canal Pathway Colonel By,1/25/2010,45.42137146,-75.68595886,4.0,4.0,4.0
5,100000519,NCC Ottawa River Pathway at Prince of Wales Bridge,3/1/2010,45.41200256,-75.72299194,5.0,5.0,5.0
6,100000986,Langensandbrücke,1/1/2012,47.045435,8.309292,6.0,6.0,6.0
7,100000987,Taubenhaus,1/1/2012,47.042559999999995,8.302307,7.0,7.0,7.0
8,100001188,Automatische Velozählstellen in Winterthur – Frohbergstrasse,4/30/2011,47.49723,8.726242999999998,8.0,8.0,8.0
9,100001273,Rantaraitti (Pötkä),11/13/2017,62.61425,29.72472,9.0,9.0,9.0
10,100001393,Barcelona - Plaça de Tetuan,5/16/2011,41.39436,2.1759484000000002,10.0,10.0,10.0
11,100001678,Bike Counter Data – Laurier at Metcalfe – Eastbound + Westbound,7/10/2011,45.41985,-75.696075,11.0,11.0,11.0
12,100001753,Notre-Dame,10/17/2013,45.530215999999996,-73.544426,12.0,12.0,12.0
13,100001783,Laurier at Lyon,7/9/2011,45.417012799999995,-75.7031297,13.0,13.0,13.0
14,100002022,Le Mont-Saint-Michel,7/27/2011,48.63501,-1.5107716,14.0,14.0,14.0
15,100002415,Bike Counter Data Fell at Scott Westbound ,2/10/2009,37.7742,-122.436295,15.0,15.0,15.0
16,100002880,Pont_Jacques_Cartier,11/15/2011,45.52550826,-73.55442203,16.0,16.0,16.0
17,100002884,Somerset Bridge at O-Train Trillium Line,11/18/2011,45.407295,-75.71799,17.0,17.0,17.0
18,100002963,Al. Zwycięstwa,9/15/2013,54.3712,18.62702,18.0,18.0,18.0
19,100002965,Molo,11/15/2013,54.41369200000001,18.623043,19.0,19.0,19.0
20,100002969,GR62-66 Le Devois,6/9/2010,44.127033000000004,3.4418347000000002,20.0,20.0,20.0
21,100003032,Berri1,1/13/2008,45.516216,-73.56296999999998,21.0,21.0,21.0
22,100003034,Rachel / Papineau,9/29/2010,45.53044783,-73.56954036,22.0,22.0,22.0
23,100003040,PierDup,10/4/2010,45.50127,-73.54441,23.0,23.0,23.0
24,100003041,CSC (Côte Sainte-Catherine),10/4/2010,45.5149,-73.607506,24.0,24.0,24.0
25,100003042,Parc,10/1/2010,45.51385,-73.58151,25.0,25.0,25.0
26,100003560,San Marcos Inland Rail Trail EB & WB,2/5/2014,33.146637,-117.18356000000001,26.0,26.0,26.0
27,100003561,Oceanside SLR River Trail EB & WB,3/5/2014,33.203396000000005,-117.38739,27.0,27.0,27.0
28,100003562,Escondido Inland Rail Trail EB & WB,3/16/2012,33.119820000000004,-117.09081,28.0,28.0,28.0
29,100003563,Solana Beach Coast Hwy NB & SB,2/4/2014,32.991085,-117.27147,29.0,29.0,29.0
30,100003564,SR 56 Bike Path EB & WB,2/20/2015,32.95814,-117.15307,30.0,30.0,30.0
31,100003565,SD Sorrento Valley Rd NB & SB,11/8/2013,32.91754908,-117.23824479999999,31.0,31.0,31.0
32,100003566,SD Rose Canyon Bike Path NB & SB,9/5/2014,32.834373,-117.2323,32.0,32.0,32.0
33,100003567,SD E Mission Bay Dr NB & SB,12/3/2011,32.789646000000005,-117.20898000000001,33.0,33.0,33.0
34,100003568,SD River Bike Path EB & WB,2/9/2015,32.760265000000004,-117.2022,34.0,34.0,34.0
35,100003569,Oceanside Pacific St NB & SB,2/4/2014,33.181255,-117.37246,35.0,35.0,35.0
36,100003570,SD Landis St EB & WB,9/16/2014,32.745487,-117.12106999999999,36.0,36.0,36.0
37,100003571,SD Harbor Dr Multi-Use Path EB & WB,9/20/2012,32.72797,-117.18266000000001,37.0,37.0,37.0
38,100003572,SD 30th St NB & SB,12/9/2014,32.741684,-117.13011999999999,38.0,38.0,38.0
39,100003573,SD Harbor Dr Pedestrian Bridge NB & SB,2/9/2012,32.705284000000006,-117.15668500000001,39.0,39.0,39.0
40,100003574,Coronado Bayshore Bikeway NB & SB,10/29/2014,32.69119266,-117.1692871,40.0,40.0,40.0
41,100003575,National City Sweetwater Bike Path EB & WB,9/24/2012,32.657333,-117.070625,41.0,41.0,41.0
42,100003576,Chula Vista Bayshore Bikeway NB & SB,2/7/2012,32.64903891,-117.1036983,42.0,42.0,42.0
43,100003578,Imperial Beach Palm Avenue EB & WB,1/6/2014,32.58399,-117.130775,43.0,43.0,43.0
44,100003579,SD University Ave EB & WB,2/21/2012,32.74829883,-117.1612868,44.0,44.0,44.0
45,100003580,Vista Village Drive EB - Bike,5/2/2012,33.20328,-117.24201000000001,45.0,45.0,45.0
46,100003581,Vista Village Drive WB - Bike,5/2/2012,33.203068,-117.24268000000001,46.0,46.0,46.0
47,100003582,Oceanside Blvd EB - Bike,3/4/2014,33.20258,-117.31333000000001,47.0,47.0,47.0
48,100003583,Oceanside Blvd WB - Bike,3/4/2014,33.203194,-117.31156999999999,48.0,48.0,48.0
49,100003584,Del Mar Camino Del Mar SB - Bike,7/14/2014,32.95839,-117.26476000000001,49.0,49.0,49.0
50,100003585,Del Mar Camino Del Mar - Ped Westside,2/9/2012,32.958532399999996,-117.26483300000001,50.0,50.0,50.0
51,100003586,Del Mar Camino Del Mar NB - Bike,2/8/2012,32.958420000000004,-117.26503999999998,51.0,51.0,51.0
52,100003587,Del Mar Camino Del Mar - Ped Eastside,2/9/2012,32.9586213,-117.26484450000001,52.0,52.0,52.0
53,100003588,Del Mar Heights EB - Bike,11/15/2013,32.9554501,-117.2309702,53.0,53.0,53.0
54,100003589,Del Mar Heights WB - Bike,11/15/2013,32.95537410000001,-117.2309472,54.0,54.0,54.0
55,100003590,SD Torrey Pines UCSD NB & SB,1/9/2014,32.87211,-117.243706,55.0,55.0,55.0
56,100003591,SD Gilman Dr SB - Bike,11/12/2013,32.86976,-117.23822,56.0,56.0,56.0
57,100003592,SD Gilman Dr NB - Bike,11/12/2013,32.86976,-117.23801,57.0,57.0,57.0
58,100003593,SD Kearney Villa SB - Bike,11/12/2013,32.75333,-117.20086,58.0,58.0,58.0
59,100003594,SD Kearney Villa NB - Bike,11/12/2013,32.81429,-117.26983,59.0,59.0,59.0
60,100003595,SD Torrey Pines EB - Bike,1/8/2014,32.84831,-117.26348,60.0,60.0,60.0
61,100003596,SD Torrey Pines WB - Bike,1/9/2014,32.85516,-117.2456,61.0,61.0,61.0
62,100003597,La Mesa University Ave WB - Bike,4/18/2012,32.767517,-117.02041000000001,62.0,62.0,62.0
63,100003598,La Mesa University Ave EB - Bike,4/18/2012,32.76747,-117.0208,63.0,63.0,63.0
64,100003599,El Cajon Washington Ave EB - Bike,2/6/2012,32.78757,-116.92934,64.0,64.0,64.0
65,100003600,El Cajon Washington Ave WB - Bike,2/7/2012,32.787712,-116.93004599999999,65.0,65.0,65.0
66,100003601,SD Nimitz Blvd SB,9/19/2012,32.743774,-117.23301000000001,66.0,66.0,66.0
67,100003602,SD Nimitz Blvd NB,9/19/2012,32.743815999999995,-117.2328,67.0,67.0,67.0
68,100003603,SD Pac Hwy SB - Bike,9/13/2012,32.75331,-117.20073000000001,68.0,68.0,68.0
69,100003604,SD Pac Hwy NB - Bike,9/13/2012,32.75323,-117.20055,69.0,69.0,69.0
70,100003605,SD University Ave WB - Bike,9/19/2012,32.748337,-117.15321999999999,70.0,70.0,70.0
71,100003606,SD University Ave EB - Bike,9/19/2012,32.748566,-117.15258,71.0,71.0,71.0
72,100003607,SD 4th SB - Bike,12/15/2014,32.72878822,-117.1611013,72.0,72.0,72.0
73,100003610,SD Broadway EB & WB - Ped Northside,12/10/2014,32.7157206,-117.1595054,73.0,73.0,73.0
74,100003611,SD Broadway EB & WB - Ped Southside,2/10/2012,32.7156649,-117.15991899999999,74.0,74.0,74.0
75,100003612,SD La Jolla Blvd NB & SB,9/11/2012,32.81429,-117.26973999999998,75.0,75.0,75.0
76,100003613,SD 5th NB - Bike,12/15/2014,32.7287399,-117.16035009999999,76.0,76.0,76.0
77,100003679,Av Boisse,1/21/2009,45.58142,5.91151,77.0,77.0,77.0
78,100003680,Av Lyon sens montant,12/31/2009,45.56235,5.9114,78.0,78.0,78.0
79,100003681,Parc Buisson Rond,2/21/2009,45.56139,5.94013,79.0,79.0,79.0
80,100003682,Parc Du Verney,6/8/2006,45.568870000000004,5.91904,80.0,80.0,80.0
81,100003683,Av Lyon sens descendant,12/31/2009,45.56273,5.9081,81.0,81.0,81.0
82,100003684,VV Leysse,6/8/2006,45.56831,5.9398300000000015,82.0,82.0,82.0
83,100003685,leysse us,6/13/2006,45.568474,5.940116400000001,83.0,83.0,83.0
84,100003686,Avenue Verte Nord,8/31/2010,45.585409999999996,5.90442,84.0,84.0,84.0
85,100003687,Croix de Bissy,8/31/2010,45.58254,5.8867199999999995,85.0,85.0,85.0
86,100003688,Comte Vert Est,3/7/2011,45.57293,5.9082,86.0,86.0,86.0
87,100003689,Comte Vert Ouest,9/29/2010,45.57297,5.9076699999999995,87.0,87.0,87.0
88,100003690,Berroir Sud,7/14/2012,45.56574000000001,5.93374,88.0,88.0,88.0
89,100003691,VV Planeurs,9/2/2010,45.55883,5.9826,89.0,89.0,89.0
90,100003692,Berroir Nord,2/23/2012,45.56562,5.93389,90.0,90.0,90.0
91,100003832,Escondido Inland Rail Trail EB & WB - Bike,3/16/2012,33.11996,-117.09037,91.0,91.0,91.0
92,100003842,Del Mar Camino Del Mar - Ped Westside,2/9/2012,0.0,0.0,92.0,92.0,92.0
93,100003845,SD University Ave EB & WB - Ped,2/21/2012,32.748295,-117.16111000000001,93.0,93.0,93.0
94,100003882,Chula Vista Bayshore Bikeway NB & SB - Bike,2/7/2012,32.64239,-117.10181399999999,94.0,94.0,94.0
95,100003925,Mill Valley - Sausalito Path South of Sycamore,1/1/2011,37.89539,-122.52588999999999,95.0,95.0,95.0
96,100004126,VÄSTRA VALLGATAN,4/20/2012,57.108166000000004,12.249027,96.0,96.0,96.0
97,100004165,Erbprinzenstraße,4/25/2012,49.0072864,8.4027153,97.0,97.0,97.0
98,100004308,Cathkins Brae,5/30/2012,55.800518000000004,-4.245685,98.0,98.0,98.0
99,100004534,Bleicherstrasse,11/1/2012,47.04351886,8.30699831,99.0,99.0,99.0
100,100004535,Löwenplatz,11/1/2012,47.05707,8.310312,100.0,100.0,100.0
101,100004536,Baselstrasse,11/1/2012,47.05333243,8.29437638,101.0,101.0,101.0
102,100004538,Inseli,11/1/2012,47.0490463,8.3139376,102.0,102.0,102.0
103,100004539,Palace,11/1/2012,47.0552811,8.3185976,103.0,103.0,103.0
104,100004540,Dammstrasse,11/1/2012,47.052640000000004,8.296418,104.0,104.0,104.0
105,100004575,Brébeuf,7/3/2009,45.527496,-73.57432,105.0,105.0,105.0
106,100004595,Freiburg Wiwilibrücke - Radfahrende im Querschnitt,5/1/2012,47.995213,7.8407526,106.0,106.0,106.0
107,100004691,"Kerékpárszámláló  - Budapest  - Andrássy út, a Nagymező utcánál, befelé - REMOVED",7/3/2012,47.50332,19.060497,107.0,107.0,107.0
108,100004692,"Kerékpárszámláló  - Budapest  - Andrássy út, a Nagymező utcánál, kifelé - REMOVED",7/3/2012,47.503204,19.06038,108.0,108.0,108.0
109,100004857,Licznik rowerowy -  ul. Pomorska,7/10/2012,54.09558000000001,18.7875,109.0,109.0,109.0
110,100005014,KÖ Steinstr,8/6/2012,51.223240000000004,6.7791767000000025,110.0,110.0,110.0
111,100005020,New York City DOT - Manhattan Bridge,9/1/2012,40.69981,-73.98589,111.0,111.0,111.0
112,100005157,Bike Barometer : Portland Hawthorne Bridge,8/8/2012,45.514072,-122.67374,112.0,112.0,112.0
113,100005392,Liningweg,1/1/2014,54.10295,12.07408,113.0,113.0,113.0
114,100005393,Braesigplatz,1/1/2014,54.102818000000006,12.0749855,114.0,114.0,114.0
115,100005394,Langestr,1/1/2014,54.09034000000001,12.13605,115.0,115.0,115.0
116,100005395,Am Strande,1/1/2014,54.09152283,12.14942155,116.0,116.0,116.0
117,100005493,Neustadtstrasse,11/1/2012,47.0441705,8.308901299999999,117.0,117.0,117.0
118,100005630,Seattle Fremont Bridge,10/10/2012,47.648109999999996,-122.3499,118.0,118.0,118.0
119,100005835,Coronado Bayshore Bikeway NB & SB - Bike,10/29/2014,32.6899,-117.16981499999999,119.0,119.0,119.0
120,100005837,SD Harbor Dr Multi-Use Path EB & WB - Bike,9/20/2012,32.727996999999995,-117.18321,120.0,120.0,120.0
121,100005838,SD River Bike Path EB & WB - Ped,2/9/2015,32.76027,-117.202156,121.0,121.0,121.0
122,100005839,San Marcos Inland Rail Trail EB & WB - Bike,2/5/2014,33.146435,-117.18198999999998,122.0,122.0,122.0
123,100006456,"Tramore Town to Waterford City Bicycle Counter at Pickardstown, Tramore",12/12/2012,52.179386,-7.1361785000000015,123.0,123.0,123.0
124,100006825,Test GMAL,1/1/2013,0.0,0.0,124.0,124.0,124.0
125,100006920,PYRO-Box 1,8/18/2014,38.85273400000001,-104.93855,125.0,125.0,125.0
126,100006921,Rock Island Trail,7/25/2013,38.85895,-104.77684,126.0,126.0,126.0
127,100006922,Urban Post 2,12/29/2012,38.82266,-104.83791,127.0,127.0,127.0
128,100006923,Templeton Gap,8/22/2013,38.885329999999996,-104.80631,128.0,128.0,128.0
129,100007068,Charlottenlund,2/21/2013,69.66585500000001,18.946382999999997,129.0,129.0,129.0
130,100007069,Huon,5/4/2013,56.66785400000001,16.349332999999998,130.0,130.0,130.0
131,100007108,Sandtangen,4/8/2013,58.736355,5.651372,131.0,131.0,131.0
132,100007363,Storgata nord,6/4/2013,61.117523,10.464487,132.0,132.0,132.0
133,100007381,Langvannet,2/13/2013,69.68824000000001,18.986538,133.0,133.0,133.0
134,100007390,Ville de Montréal - Métro Laurier,2/14/2013,45.5277722,-73.58883237,134.0,134.0,134.0
135,100007395,Stavsjøen,11/26/2015,63.39806,10.739717,135.0,135.0,135.0
136,100007698,Ottawa - Portage Bridge / Pont du Portage - 2014,4/3/2014,45.420258000000004,-75.71219,136.0,136.0,136.0
137,100007834,Bike Counter Data - Market Street Totem (Eastbound),5/9/2013,37.776913,-122.41691999999999,137.0,137.0,137.0
138,100007875,Avenue Marius Berroir,9/1/2010,45.565909999999995,5.9339232000000015,138.0,138.0,138.0
139,100007876,Avenue Comte Vert,9/1/2010,45.573013,5.9078040000000005,139.0,139.0,139.0
140,100007882,Avenue de Lyon,1/20/2009,45.56214351,5.911499945,140.0,140.0,140.0
141,100008160,Trillium Bayview,5/6/2013,45.410313,-75.72383,141.0,141.0,141.0
142,100008205,Helsehuset,5/9/2013,61.134438,10.440134,142.0,142.0,142.0
143,100008473,Trillium Gladstone,5/6/2013,45.40487,-75.71523,143.0,143.0,143.0
144,100008521,Colorado Springs - Manitou Incline,7/20/2013,38.856888,-104.93223,144.0,144.0,144.0
145,100008522,Pikes peak Greenway @ CC,4/25/2014,38.91164000000001,-104.85776499999999,145.0,145.0,145.0
146,100008546,Kaisaniemi,6/8/2013,60.178238,24.940506,146.0,146.0,146.0
147,100008715,UCLA Strathmore Bike Counter,11/21/2013,34.06864,-118.44598,147.0,147.0,147.0
148,100008731,Kalmar,6/13/2013,56.688667,16.322333999999998,148.0,148.0,148.0
149,100008768,Seattle Spokane Street,11/24/2013,47.57132761,-122.3493994,149.0,149.0,149.0
150,100008914,Schweizerhofquai,1/1/2012,47.05418,8.310838,150.0,150.0,150.0
151,100008928,Sydspissen|,8/4/2015,69.62948,18.91175,151.0,151.0,151.0
152,100008931,Grenseveien gang og sykkelbro,1/14/2016,59.9204,10.79475,152.0,152.0,152.0
153,100008932,Akerselva ved Vøyenbrua,9/3/2014,59.93213000000001,10.758295,153.0,153.0,153.0
154,100009153,Skurubron på Sicklaön,9/5/2013,59.313644,18.21258,154.0,154.0,154.0
155,100009154,Sicklavägen på Sicklön,9/5/2013,59.307235999999996,18.113676,155.0,155.0,155.0
156,100009814,Rocky Mountain Legacy Trail - Canmore Trailhead,8/5/2010,51.134235,-115.40755,156.0,156.0,156.0
157,100009915,UiT,5/19/2014,69.67943000000001,18.971754,157.0,157.0,157.0
158,100009916,Jaklins Plass,5/19/2014,69.65265,18.960064000000006,158.0,158.0,158.0
159,100009928,Contador Ciclista Reforma 222 - Ciudad de México,11/16/2013,19.429134,-99.162094,159.0,159.0,159.0
160,100009931,Moreland Totem Bike Counter,10/15/2013,-37.77995,144.97733,160.0,160.0,160.0
161,100010066,Rocky Mountain Legacy Trail – Canmore Trailhead,8/6/2010,51.105335,-115.3673,161.0,161.0,161.0
162,100010113,Mosseveien,10/25/2013,59.21660600000001,10.92417,162.0,162.0,162.0
163,100010223,North Barrington Street,11/19/2013,44.64771,-63.57428,163.0,163.0,163.0
164,100010264,Borregårdsbakken,2/11/2014,59.279984,11.125977,164.0,164.0,164.0
165,100010265,Alvim,2/1/2014,59.274498,11.082512,165.0,165.0,165.0
166,100010268,Tåsen,11/5/2013,59.9532,10.757,166.0,166.0,166.0
167,100010269,Helsfyr,11/1/2013,59.91367654,10.80230483,167.0,167.0,167.0
168,100010270,Jessheim sentrum,12/6/2013,60.143917,11.169752,168.0,168.0,168.0
169,100010271,Skedsmo Rådhus,12/16/2013,59.95491,11.039864999999999,169.0,169.0,169.0
170,100010272,Asker stasjon,11/18/2013,59.83363000000001,10.43706,170.0,170.0,170.0
171,100010273,Skiveien Kolbotn,12/11/2013,59.808533,10.80595,171.0,171.0,171.0
172,100010274,Jarmyra,10/8/2013,59.923823999999996,10.611697,172.0,172.0,172.0
173,100010337,Ooppera,10/25/2013,60.18196999999999,24.93145,173.0,173.0,173.0
174,100010638,MIGUEL CLARO,7/28/2015,-33.439743,-70.61783,174.0,174.0,174.0
175,100010640,ANTONIO VARAS,3/29/2015,-33.440807,-70.61324,175.0,175.0,175.0
176,100010641,MARIN,3/29/2015,-33.444214,-70.62786,176.0,176.0,176.0
177,100010642,RICARDO LYON,3/29/2015,-33.427054999999996,-70.6079,177.0,177.0,177.0
178,100010646,ANDRES BELLO,3/29/2015,-33.424118,-70.62054,178.0,178.0,178.0
179,100010651,Transcona Trail,10/11/2013,49.903347,-97.023636,179.0,179.0,179.0
180,100010652,Bishop Grandin 2,10/14/2013,49.8277,-97.12732,180.0,180.0,180.0
181,100010653,Yellow Ribbon Greenway,10/15/2013,49.889359999999996,-97.25276,181.0,181.0,181.0
182,100010654,BG01Zelt,10/15/2013,49.820908,-97.14479,182.0,182.0,182.0
183,100010655,Northeast Pioneer 2,10/9/2013,49.92504,-97.07647,183.0,183.0,183.0
184,100010656,Northeast Pioneer 3,10/8/2013,49.93722,-97.06102,184.0,184.0,184.0
185,100010657,Northeast Pioneer 1,10/9/2013,49.914238,-97.0902,185.0,185.0,185.0
186,100010658,BG03Zelt,10/14/2013,49.839040000000004,-97.08915,186.0,186.0,186.0
187,100010659,Harte Trail 2,10/16/2013,49.84438,-97.25629,187.0,187.0,187.0
188,100010660,Harte Trail 1,10/16/2013,49.846264,-97.29439,188.0,188.0,188.0
189,100011008,Murchie's,11/22/2013,48.42494600000001,-123.36785,189.0,189.0,189.0
190,100011009,Market Square,11/22/2013,48.427856,-123.36888,190.0,190.0,190.0
191,100011010,TD,11/21/2013,48.424362,-123.36568999999999,191.0,191.0,191.0
192,100011422,Hemlock,11/13/2013,45.44655456,-75.66911306,192.0,192.0,192.0
193,100011427,Sherbourne SB at Gerrard,12/9/2012,43.66185,-79.372635,193.0,193.0,193.0
194,100011428,Sherbourne NB at Gerrard,12/3/2012,43.66707,-79.37465999999998,194.0,194.0,194.0
195,100011429,Sherbourne NB at Wellesley,12/3/2012,43.66769,-79.37482,195.0,195.0,195.0
196,100011605,Mühlendamm-Flußbad,1/1/2014,54.08378199999999,12.153115,196.0,196.0,196.0
197,100011619,WS,9/15/2013,54.3971,18.569720999999998,197.0,197.0,197.0
198,100011631,Kirchfeldstraße,12/11/2013,51.21246,6.770759599999999,198.0,198.0,198.0
199,100011632,Lohauser Deich,12/9/2013,51.2767,6.7141100000000025,199.0,199.0,199.0
200,100011637,Christophstr.,12/18/2014,51.19622800000001,6.796539999999999,200.0,200.0,200.0
201,100011747,Saint-Antoine,10/22/2013,45.50625,-73.557785,201.0,201.0,201.0
202,100011748,René-Lévesque,10/29/2013,45.516968,-73.55404,202.0,202.0,202.0
203,100011749,Viger,10/30/2013,45.505943,-73.56026999999997,203.0,203.0,203.0
204,100011783,Maisonneuve_3,11/2/2013,45.470493,-73.609566,204.0,204.0,204.0
205,100011851,Veitvet,9/24/2013,59.9457,10.8452,205.0,205.0,205.0
206,100011852,Mosseveien,10/4/2013,59.8845,10.7691,206.0,206.0,206.0
207,100011853,Nygaardsgata,9/22/2013,59.211754000000006,10.938824,207.0,207.0,207.0
208,100011854,Mosseveien,10/25/2013,59.21660600000001,10.92417,208.0,208.0,208.0
209,100011934,Spring Garden - South,4/1/2016,44.642586,-63.57839,209.0,209.0,209.0
210,100011935,Spring Garden - North,1/25/2014,44.643093,-63.577305,210.0,210.0,210.0
211,100011984,Stoltzekleiven,2/6/2014,60.41202,5.3348384000000015,211.0,211.0,211.0
212,100011985,Ernst-Walz-Brücke,6/1/2014,49.40911,8.6766615,212.0,212.0,212.0
213,100012015,South Barrington,12/18/2013,44.641684999999995,-63.571087,213.0,213.0,213.0
214,100012016,George Street,12/18/2013,44.648937,-63.573128000000004,214.0,214.0,214.0
215,100012079,Cawston St corridor,4/12/2014,49.891729999999995,-119.48883000000001,215.0,215.0,215.0
216,100012161,Plöck,11/1/2015,49.40913,8.698542999999999,216.0,216.0,216.0
217,100012217,Rachel / Hôtel de Ville,10/16/2013,45.51968400000001,-73.58022,217.0,217.0,217.0
218,100012218,Boyer,11/1/2013,45.53365,-73.59459,218.0,218.0,218.0
219,100012285,North Upper Water,1/19/2014,44.649654,-63.573207999999994,219.0,219.0,219.0
220,100012286,South Lower Water,1/20/2014,44.643673,-63.56954200000001,220.0,220.0,220.0
221,100012340,Bygdetunet,1/23/2017,59.80585338,10.2990891,221.0,221.0,221.0
222,100012585,Argyle Street,12/3/2013,44.645866,-63.573969999999996,222.0,222.0,222.0
223,100012608,Gaisbergstraße,11/1/2015,49.406723,8.694239999999999,223.0,223.0,223.0
224,100012754,Urban Post 01,5/7/2018,48.75737460000001,-3.4634812000000004,224.0,224.0,224.0
225,100012756,Urban Post 02,2/4/2014,38.82266928,-104.8384025,225.0,225.0,225.0
226,100012757,Ute Valley PineCliff,4/24/2014,38.911034,-104.84947,226.0,226.0,226.0
227,100012758,Ute Valley Main Parking Lot,4/23/2014,38.924853999999996,-104.85724,227.0,227.0,227.0
228,100012785,Frankton Track,7/1/2014,-45.034714,168.67975,228.0,228.0,228.0
229,100012787,Multi 01,5/7/2014,38.847970000000004,-104.82859,229.0,229.0,229.0
230,100012893,Arlington Key Bridge - Bicycle Counts,8/10/2011,0.0,0.0,230.0,230.0,230.0
231,100013031,Hamarvegen,8/22/2014,61.106728000000004,10.47285,231.0,231.0,231.0
232,100013034,Mannheimer Straße,11/1/2015,49.4118,8.659139999999999,232.0,232.0,232.0
233,100013099,Ped Bridge 1,5/20/2014,44.64919151,-63.5712473,233.0,233.0,233.0
234,100013436,Sherbourne SB at  Wellesley,12/3/2012,43.661229999999996,-79.372215,234.0,234.0,234.0
235,100013460,NCC Alexandra Bridge Cycle Track,6/5/2009,45.429188,-75.70199000000002,235.0,235.0,235.0
236,100013524,Wiborg atrium,12/1/2014,59.22405,10.952996,236.0,236.0,236.0
237,100013678,Dovrefjell 1-Grønbakken,6/13/2014,62.26882,9.59703,237.0,237.0,237.0
238,100013679,Dovrefjell 2 vårstigen,6/13/2014,62.36166,9.64761,238.0,238.0,238.0
239,100013680,Rennebu-Voll,6/18/2014,62.81606,9.97633,239.0,239.0,239.0
240,100013681,Eidsvoll,6/1/2015,60.29821,11.18506,240.0,240.0,240.0
241,100013682,Trondheim-Kastberga,5/9/2014,63.36119,10.30233,241.0,241.0,241.0
242,100013683,Orkanger-Svorkmo,7/15/2014,63.18604000000001,9.82848,242.0,242.0,242.0
243,100013684,Hamar- Prøysenskogen,5/27/2014,60.9172,10.84115,243.0,243.0,243.0
244,100013685,Granavollen- Kittelsrud,5/9/2014,60.49596999999999,10.59812,244.0,244.0,244.0
245,100013686,Gudbrandsdalen-Øyer,5/28/2014,61.28738000000001,10.400139999999999,245.0,245.0,245.0
246,100013687,Stiklestad-Munkeby,5/9/2014,63.74973000000001,11.43783,246.0,246.0,246.0
247,100013732,König-Karls-Brücke,7/1/2012,48.798843,9.209901,247.0,247.0,247.0
248,100013755,Escondido Inland Rail Trail EB & WB - Ped,2/5/2014,33.1198,-117.09090400000001,248.0,248.0,248.0
249,100013756,San Marcos Inland Rail Trail EB & WB - Ped,2/4/2014,33.146725,-117.18393,249.0,249.0,249.0
250,100013757,Oceanside SLR River Trail EB & WB - Ped,3/5/2014,33.20438,-117.38638999999999,250.0,250.0,250.0
251,100013758,SD River Bike Path EB & WB - Bike,2/9/2015,32.760433,-117.20148999999999,251.0,251.0,251.0
252,100013759,Coronado Bayshore Bikeway NB & SB - Ped,10/29/2014,32.68912,-117.16978,252.0,252.0,252.0
253,100013760,SD Harbor Drive Multi-Use Path EB & WB - Ped,1/5/2014,32.727779999999996,-117.18243999999999,253.0,253.0,253.0
254,100013761,Chula Vista Bayshore Bikeway NB & SB - Ped,2/7/2012,32.641544,-117.10146999999999,254.0,254.0,254.0
255,100013817,Peace Bridge,4/23/2014,51.05356,-114.07836,255.0,255.0,255.0
256,100013833,Old Lower Shotover River Track,7/1/2014,-44.99658,168.75781,256.0,256.0,256.0
257,100013834,Kelvin Peninsula New,7/1/2014,-45.03083,168.70834,257.0,257.0,257.0
258,100013835,Riverside Road New,7/1/2014,-45.03185,168.7432,258.0,258.0,258.0
259,100013990,Waterfront Walkway,6/26/2014,49.89629,-119.49989,259.0,259.0,259.0
260,100013992,City Park Multi,12/1/2013,49.881157,-119.50341,260.0,260.0,260.0
261,100013994,Bernard Ave south sidewalk,7/18/2014,49.886208,-119.48898999999999,261.0,261.0,261.0
262,100013995,Bernard Ave north sidewalk,9/14/2013,49.88634215,-119.4887544,262.0,262.0,262.0
263,100014077,Oceanside SLR River Trail EB & WB - Bike,3/4/2014,33.203285,-117.38743999999998,263.0,263.0,263.0
264,100014096,Imperial Beach Bayshore Bikeway EB & WB,5/16/2014,32.589554,-117.11067,264.0,264.0,264.0
265,100014228,Sunset Dr N of Brandts Creek Crosswalk,5/21/2013,49.89666,-119.49852,265.0,265.0,265.0
266,100014230,Bennett Bridge Walkway,8/26/2013,49.880573,-119.50381000000002,266.0,266.0,266.0
267,100014231,Abbott St Corridor,5/27/2013,49.877990000000004,-119.49688,267.0,267.0,267.0
268,100014511,FR2 Güterbahnradweg / Ferdinand-Weiß-Straße - Radfahrende im Querschnitt,8/1/2014,47.998591999999995,7.822081599999999,268.0,268.0,268.0
269,100014557,Tverrløypa Nybu,6/8/2015,61.115067,10.48515,269.0,269.0,269.0
270,100014585,FR1 Dreisamradweg / Hindenburgstraße - Radfahrende im Querschnitt,8/1/2014,47.99054,7.862301299999999,270.0,270.0,270.0
271,100014631,Coastal Community,10/9/2014,48.424526,-123.36333,271.0,271.0,271.0
272,100014632,Friends of Bears,10/10/2014,48.426753999999995,-123.36506000000001,272.0,272.0,272.0
273,100014633,Monk Office,10/11/2014,48.424416,-123.3625,273.0,273.0,273.0
274,100014670,Village Gaulois : Combo2,7/4/2014,48.78507632,-3.52609939,274.0,274.0,274.0
275,100014679,Ylisoutajan silta,7/3/2014,62.59422634,29.75747177,275.0,275.0,275.0
276,100015128,City of Boulder - 13th at Walnut,8/25/2014,40.01719387,-105.2783267,276.0,276.0,276.0
277,100015266,Gilhusodden,8/4/2014,59.74693004,10.26713487,277.0,277.0,277.0
278,100015388,CITIX,9/5/2014,44.648663,-63.57089200000001,278.0,278.0,278.0
279,100015584,Portsmouth Road,1/1/2001,0.0,0.0,279.0,279.0,279.0
280,100015585,Horsefair,1/1/2001,0.0,0.0,280.0,280.0,280.0
281,100015586,Marsh Lane,1/1/2001,0.0,0.0,281.0,281.0,281.0
282,100015729,Cherry Street,8/25/2014,43.44645,-80.51071,282.0,282.0,282.0
283,100015778,Morven Ferry Rd Intersection,7/1/2014,-44.992813,168.85516,283.0,283.0,283.0
284,100015779,Swain Bridge,7/1/2014,-44.96687,168.85442,284.0,284.0,284.0
285,100015780,Speargrass Flat Road,7/1/2014,-44.960772999999996,168.80653,285.0,285.0,285.0
286,100015781,Billies Bridge,7/1/2014,-45.0038,168.80299,286.0,286.0,286.0
287,100016107,Lauttasaarentie,10/15/2014,60.16141500000001,24.893135,287.0,287.0,287.0
288,100016151,George Street,9/15/2014,44.64887,-63.57333000000001,288.0,288.0,288.0
289,100016157,Monolittvn ved Frognerparken,11/5/2014,59.92944,10.695102,289.0,289.0,289.0
290,100016158,Østensjøvn ved Brynseng,10/16/2014,59.9091,10.8146,290.0,290.0,290.0
291,100016159,Ullevålsvn 19,10/28/2014,59.92075,10.742360000000001,291.0,291.0,291.0
292,100016160,Maridalsvn nord for Fredensborgvn,10/8/2014,59.923140000000004,10.75075,292.0,292.0,292.0
293,100016161,Ekebergvn 160,10/29/2014,59.878859999999996,10.78758,293.0,293.0,293.0
294,100016261,Rocky Mountain,10/11/2014,48.42377000000001,-123.368,294.0,294.0,294.0
295,100016262,Canada Post,10/11/2014,48.426178,-123.3643,295.0,295.0,295.0
296,100016421,Moss-Mosskogen,11/26/2014,59.4562,10.67886,296.0,296.0,296.0
297,100016422,Moss-RyggeTelemarkslund-Ekeby,11/27/2014,59.387519999999995,10.66918,297.0,297.0,297.0
298,100016424,Mannesmann Ufer-Totem 01,10/19/2014,51.220154,6.7671213,298.0,298.0,298.0
299,100016667,Aleksanterinkatu,10/30/2014,60.168934,24.94585,299.0,299.0,299.0
300,100016669,Vanha Ylioppilastalo,10/30/2014,60.16891,24.940344,300.0,300.0,300.0
301,100016673,Forumin tunneli,10/30/2014,60.169228000000004,24.938232,301.0,301.0,301.0
302,100016754,"Madison, WI – Eco-Totem on the Southwest Path at Monroe Street",10/6/2014,43.067913,-89.41238,302.0,302.0,302.0
303,100016786,Chr Michelsens gt nordside,10/13/2014,59.92886,10.77053,303.0,303.0,303.0
304,100016789,Chr Michelsens gt sydside,10/11/2014,59.92863000000001,10.7702,304.0,304.0,304.0
305,100016790,Maridalsvn ved Carl Kjelsens vei,10/7/2014,59.9547,10.761239999999999,305.0,305.0,305.0
306,100016795,St Georges Road,4/16/2015,-37.775917,144.98993000000004,306.0,306.0,306.0
307,100016888,Capital Crescent Trail #1,11/13/2014,38.9795,-77.09676,307.0,307.0,307.0
308,100016908,Facultad de Derecho,12/15/2014,-34.583453999999996,-58.39204,308.0,308.0,308.0
309,100016909,Shoal Creek,10/31/2014,30.308066999999998,-97.74795,309.0,309.0,309.0
310,100016910,Duval,10/30/2014,30.294990000000002,-97.73214,310.0,310.0,310.0
311,100016911,Manor,11/1/2014,30.284151,-97.719925,311.0,311.0,311.0
312,100016912,Guadalupe,2/28/2015,30.284190000000002,-97.74186999999999,312.0,312.0,312.0
313,100016914,S 1st St,11/1/2014,30.261870000000002,-97.7483,313.0,313.0,313.0
314,100016915,S 1st St 2,11/1/2014,30.26185,-97.74842,314.0,314.0,314.0
315,100017105,Leon Creek at Prue Road,11/17/2014,29.541576,-98.63145,315.0,315.0,315.0
316,100017106,Salado Creek at Blanco Road,11/18/2014,29.563576,-98.51931,316.0,316.0,316.0
317,100017127,Argyle Street,12/6/2013,44.646038,-63.574127000000004,317.0,317.0,317.0
318,100017151,Churchill @ Byron,10/20/2014,45.38968877,-75.75237469,318.0,318.0,318.0
319,100017181,7 Street South Cycle Track,12/11/2014,51.050327,-114.0784,319.0,319.0,319.0
320,100017341,W'münde Wetterwarte,11/25/2014,54.17664,12.05835,320.0,320.0,320.0
321,100017523,Saint-Urbain,11/8/2014,45.5193951,-73.58866311,321.0,321.0,321.0
322,100017789,Hippodrome (chemin de halage),1/19/2015,45.767540000000004,4.908551,322.0,322.0,322.0
323,100017799,Holmenkollen Nasjonalanlegg,12/8/2014,59.964969999999994,10.669804,323.0,323.0,323.0
324,100017862,Taubenheim Str. von Kursaal,12/19/2016,48.80535826,9.226311009,324.0,324.0,324.0
325,100017863,Waiblinger Str. Ri. Fellbach,12/19/2016,48.8053201,9.2266209,325.0,325.0,325.0
326,100017946,South Keys Bridge,11/23/2014,45.35406,-75.65884399999999,326.0,326.0,326.0
327,100018241,Rustadsaga,12/10/2014,59.872997,10.856117999999999,327.0,327.0,327.0
328,100018242,Sognsvann,12/10/2014,59.968693,10.731999,328.0,328.0,328.0
329,100018264,New counter 01,1/1/1900,0.0,0.0,329.0,329.0,329.0
330,100018267,600 Penn,4/15/2016,40.442806,-80.00173000000002,330.0,330.0,330.0
331,100018268,900 Penn,4/15/2016,40.444187,-79.99679,331.0,331.0,331.0
332,100018269,1200 Penn,4/15/2016,40.44608,-79.991714,332.0,332.0,332.0
333,100018487,Peace Bridge Cyclist Counts,4/24/2014,51.05354000000001,-114.07838000000001,333.0,333.0,333.0
334,100018531,South Barrington Temp,11/30/2014,44.64100000000001,-63.57,334.0,334.0,334.0
335,100019208,Imperial Beach Bayshore Bikeway EB & WB - Bike,5/16/2014,32.589527000000004,-117.1102,335.0,335.0,335.0
336,100019209,National City Sweetwater Bike Path EB & WB - Bike,9/24/2012,32.657387,-117.071625,336.0,336.0,336.0
337,100019210,National City Sweetwater Bike Path EB & WB - Ped,9/24/2012,32.65724,-117.07013,337.0,337.0,337.0
338,100019211,Imperial Beach Bayshore Bikeway EB & WB - Ped,5/16/2014,32.589455,-117.11242,338.0,338.0,338.0
339,100019274,SD Sorrento Valley Rd NB & SB - Bike,11/8/2013,32.91741,-117.23813999999999,339.0,339.0,339.0
340,100019275,Del Mar Camino Del Mar - Ped Eastside,2/9/2012,0.0,0.0,340.0,340.0,340.0
341,100019325,Loaner1537,2/24/2015,36.008217,-95.93165,341.0,341.0,341.0
342,100019385,Coventry Bridge,2/9/2015,45.41887,-75.652855,342.0,342.0,342.0
343,100019720,5.03 BN - Nordbrücke (Südseite),5/1/2015,50.75490458,7.096788329,343.0,343.0,343.0
344,100019721,5.04 BN - Nordbrücke (Nordseite),5/1/2015,50.75769827,7.101340951,344.0,344.0,344.0
345,100019722,5.05 BN - Südbrücke (Südseite),5/1/2015,50.71546283,7.142160723,345.0,345.0,345.0
346,100019723,5.06 BN - Südbrücke (Nordseite),5/1/2015,50.719436,7.144403347999999,346.0,346.0,346.0
347,100019724,5.07 BN - Estermannufer,5/1/2015,50.7680718,7.068537905,347.0,347.0,347.0
348,100019725,5.10 BN - Bröhltalweg,5/1/2015,50.742508,7.113625999999999,348.0,348.0,348.0
349,100019726,5.11 BN - Brühler Straße,6/1/2015,50.740383,7.069422,349.0,349.0,349.0
350,100019727,5.12 BN - Straßenburger Weg,7/1/2015,50.71930388,7.1134973089999995,350.0,350.0,350.0
351,100019728,5.08 BN - Von-Sandt-Ufer,6/1/2015,50.700893,7.1669089999999995,351.0,351.0,351.0
352,100019729,5.09 BN - Rhenusallee,6/1/2015,50.72213,7.134297,352.0,352.0,352.0
353,100019731,2.08 RSK - Neunk.-Seelscheid,7/3/2015,50.874657,7.331745,353.0,353.0,353.0
354,100019732,2.01 RSK - Windeck,8/22/2015,50.80748,7.5964399999999985,354.0,354.0,354.0
355,100019733,2.02 RSK - Hennef,6/29/2015,50.773903000000004,7.3775787,355.0,355.0,355.0
356,100019734,2.03 RSK - Sankt Augustin,7/18/2015,50.79667,7.1651273,356.0,356.0,356.0
357,100019735,2.04 RSK - Niederkassel,9/10/2015,50.799595000000004,7.0360007,357.0,357.0,357.0
358,100019736,2.06 RSK - Bornheim,9/11/2015,50.76238,6.972411,358.0,358.0,358.0
359,100019737,2.07 RSK - Lohmar,6/2/2015,50.82845791,7.205303138,359.0,359.0,359.0
360,100019738,2.05 RSK - Königswinter,9/10/2015,50.673559999999995,7.1916994999999995,360.0,360.0,360.0
361,100019739,2.09 RSK - Meckenheim,9/10/2015,50.62785782,6.988360033999999,361.0,361.0,361.0
362,100019740,2.10 RSK - Wachtberg,7/17/2015,50.64481,7.099431,362.0,362.0,362.0
363,100019755,6.02 K - Vorgebirgspark,5/31/2015,50.913016999999996,6.948681,363.0,363.0,363.0
364,100019756,6.03 K - Alphons-Sibermann-Weg,5/27/2015,50.930084,6.930416999999999,364.0,364.0,364.0
365,100019757,6.04 K - Stadtwald,5/22/2015,50.933098,6.8929157000000005,365.0,365.0,365.0
366,100019758,6.05 K - Niederländer Ufer,5/28/2015,50.962322,6.986403,366.0,366.0,366.0
367,100019777,ANTOFAGASTA EN BICICLETA,4/28/2015,-23.595979999999997,-70.39641,367.0,367.0,367.0
368,100019778,BUSTAMANTE,3/29/2015,-33.43926389,-70.63201315,368.0,368.0,368.0
369,100019809,5.01 BN - Kennedybrücke (Nordseite),4/1/2015,50.73871332,7.11321441,369.0,369.0,369.0
370,100019810,5.02 BN - Kennedybrücke (Südseite) Barometer,4/1/2015,50.73763220000001,7.106626754,370.0,370.0,370.0
371,100020095,5 Street North of 10 Ave SW,6/18/2015,51.044643,-114.07390600000001,371.0,371.0,371.0
372,100020103,Stephen Avenue Bicycle Counts,10/23/2014,51.045803,-114.06171,372.0,372.0,372.0
373,100020104,Stephen Avenue Car Counts,10/20/2014,51.04554,-114.063644,373.0,373.0,373.0
374,100020198,Aksla,7/1/2015,69.63816,18.999384,374.0,374.0,374.0
375,100020199,Dalbergstien,7/1/2015,69.63743973,18.98638926,375.0,375.0,375.0
376,100020201,Stephen Avenue Bicycle Counts,10/23/2014,51.045574,-114.06488999999999,376.0,376.0,376.0
377,100020207,Stephen Avenue Counts,10/22/2014,51.045563,-114.06445,377.0,377.0,377.0
378,100020243,Stephen Avenue Car & Cyclist Counts,10/23/2014,51.045555,-114.06421,378.0,378.0,378.0
379,100020479,POCURO,3/29/2015,-33.43508,-70.60382,379.0,379.0,379.0
380,100020660,Y2H15037455,3/30/2016,51.048805,-114.08899,380.0,380.0,380.0
381,100020661,10 St North of 5 Ave NW,3/22/2016,51.05897537,-114.08549579999999,381.0,381.0,381.0
382,100020865,"Madison, WI – Eco-Totem on the Capital City Trail at North Shore Dr.",6/23/2015,43.067409999999995,-89.38508,382.0,382.0,382.0
383,100020873,Capital Crescent Trail #2,2/11/2015,38.94307,-77.11565999999998,383.0,383.0,383.0
384,100020981,Seattle Fremont Bridge,10/8/2012,47.64811715,-122.3498142,384.0,384.0,384.0
385,100020993,SWCT Permanent Counter,5/29/2015,30.26228,-97.68429,385.0,385.0,385.0
386,100020994,JCT Permanent Counter,5/29/2015,30.27602000000001,-97.77029,386.0,386.0,386.0
387,100020995,Boardwalk Permanent Counter,5/29/2015,30.25478612,-97.74266339,387.0,387.0,387.0
388,100021131,Bordan Street,12/22/2014,43.440197,-80.47681,388.0,388.0,388.0
389,100021132,Queen Street,12/22/2014,43.44348,-80.49606999999997,389.0,389.0,389.0
390,100021143,Kennedybrücke,4/1/2015,50.73819495,7.1102854429999995,390.0,390.0,390.0
391,100021182,Østensjøvn ved Østensjøvannet,9/8/2015,59.8941,10.8328,391.0,391.0,391.0
392,100021183,Jon Smestads vei 4,5/13/2015,59.937459999999994,10.680128999999999,392.0,392.0,392.0
393,100021184,Bærumsveien 22,5/15/2015,59.92646800000001,10.634876,393.0,393.0,393.0
394,100021185,Ullern gårdsvei 40,5/13/2015,59.92508100000001,10.646841,394.0,394.0,394.0
395,100021390,Vækerøveien 146A,7/10/2015,59.93625,10.63983,395.0,395.0,395.0
396,100021391,Hoffsveien,5/21/2015,59.93059,10.6759,396.0,396.0,396.0
397,100021392,Cykelbarometer,5/8/2016,59.39870500000001,17.982925,397.0,397.0,397.0
398,100021426,SS-22 State St. North Side,5/29/2015,43.074787,-89.387405,398.0,398.0,398.0
399,100021427,SS-23 State St. South Side,5/29/2015,43.074690000000004,-89.38772,399.0,399.0,399.0
400,100021607,Hickory Bridge,5/3/2015,45.39817,-75.70998399999998,400.0,400.0,400.0
401,100021727,6.01 K - Alfred Schütte kpl,5/18/2015,50.914497,6.9818854,401.0,401.0,401.0
402,100022012,Mobil sykkelteller,6/15/2015,61.09907349,10.485210499999999,402.0,402.0,402.0
403,100022226,01 Bonner Straße Rad,2/28/2012,0.0,0.0,403.0,403.0,403.0
404,100022305,Storgata_Lilletorget,7/15/2015,61.11565332,10.48515532,404.0,404.0,404.0
405,100022540,5 Street North of 5 Ave SW Perm,6/17/2015,51.049423,-114.07359,405.0,405.0,405.0
406,100022541,5 Street North of 15 Ave SW Perm,6/16/2015,51.039035999999996,-114.07439,406.0,406.0,406.0
407,100022543,5 St North of 10 Ave,6/16/2015,51.043907,-114.07388,407.0,407.0,407.0
408,100022547,8 Ave West of 8 St SW EB,6/10/2015,51.046043,-114.0817,408.0,408.0,408.0
409,100022580,12 Ave West of 2 St SW Perm,6/16/2015,51.041634,-114.06898500000001,409.0,409.0,409.0
410,100022581,12 Ave West of 8 St SW Perm,6/16/2015,51.04198,-114.08213,410.0,410.0,410.0
411,100022582,12 Ave West of 3 St SE Perm,6/16/2015,51.041309999999996,-114.05776000000002,411.0,411.0,411.0
412,100023038,Broadway Eco-Totem,6/23/2015,42.363304,-71.08575400000002,412.0,412.0,412.0
413,100023071,Sperling,1/1/2001,0.0,0.0,413.0,413.0,413.0
414,100023085,Winston - Sperling,7/2/2009,49.24301,-122.97223999999999,414.0,414.0,414.0
415,100023269,01 K - Bonner Straße Rad,4/1/2012,50.9182,6.960489,415.0,415.0,415.0
416,100023270,02 K - Venloer Straße Rad,7/1/2014,50.945816,6.9266076000000005,416.0,416.0,416.0
417,100023387,M2L1 - BTW BUCKHOUSE & BLUE MTN,10/21/2015,46.82696,-114.07001499999998,417.0,417.0,417.0
418,100023388,M2L2 - BTW BLUE MTN & WEIGH STATION,10/21/2015,46.801346,-114.09598999999999,418.0,418.0,418.0
419,100023389,M2L3 - S OF MORMON CRK RD,10/21/2015,46.747184999999995,-114.08304,419.0,419.0,419.0
420,100023514,Sussex at Macdonald-Cartier Bridge,8/20/2015,45.43538715,-75.69849216,420.0,420.0,420.0
421,100023678,Bike Counts in 2015,1/1/2015,0.0,0.0,421.0,421.0,421.0
422,100024146,Nordstrandveien 59,10/7/2015,59.86035,10.807960000000001,422.0,422.0,422.0
423,100024147,Tvetenveien,10/7/2015,59.9132,10.82386,423.0,423.0,423.0
424,100024148,Holmenkollvn 42,9/10/2015,59.94954,10.676110000000001,424.0,424.0,424.0
425,100024149,Trasop skole,9/10/2015,59.90593000000001,10.85111,425.0,425.0,425.0
426,100024150,Vaterlands bro,10/2/2015,59.91341,10.75789,426.0,426.0,426.0
427,100024151,Kierschowsgate 10,9/11/2015,59.93691,10.74792,427.0,427.0,427.0
428,100024230,Sherwood Forest,9/18/2015,37.33722,-77.01868,428.0,428.0,428.0
429,100024231,Adkins Road,9/18/2015,37.332188,-77.10073,429.0,429.0,429.0
430,100024232,Four Mile Creek,9/17/2015,37.43519565,-77.32803408,430.0,430.0,430.0
431,100024233,Almond Creek,9/17/2015,37.50754000000001,-77.413864,431.0,431.0,431.0
432,100024234,Willis Church,9/17/2015,37.405174,-77.26437,432.0,432.0,432.0
433,100024235,Herring Creek,9/18/2015,37.33797,-77.17409,433.0,433.0,433.0
434,100024236,Chickahominy River,9/18/2015,37.262756,-76.88913000000002,434.0,434.0,434.0
435,100024297,8 Ave West of 8 Street,7/11/2015,51.04605,-114.081604,435.0,435.0,435.0
436,100024362,Folsom @ Boulder Creek,9/8/2011,40.013040000000004,-105.26307,436.0,436.0,436.0
437,100024363,Folsom @ Pine,7/20/2015,40.02342,-105.26363,437.0,437.0,437.0
438,100024364,Folsom @ South St.,7/20/2015,40.01965,-105.26311499999998,438.0,438.0,438.0
439,100024535,"TriMet - Tilikum Crossing, Eastbound",8/7/2015,45.50327237,-122.669503,439.0,439.0,439.0
440,100024536,"TriMet - Tilikum Crossing, Westbound",8/6/2015,45.50658922,-122.66411129999999,440.0,440.0,440.0
441,100024559,Bike Barometer: Portland Tilikum Crossing,9/9/2015,45.505068,-122.666801,441.0,441.0,441.0
442,100024661,Jannowitzbrücke,4/1/2015,52.51406586,13.41775102,442.0,442.0,442.0
443,100024661,Jannowitzbrücke,4/1/2015,52.51406586,13.41775102,443.0,443.0,443.0
444,100024668,Prescott Russell Site 1 - ZELT Only,8/19/2015,45.41792,-75.55974,444.0,444.0,444.0
445,100024668,Prescott Russell Site 1 - ZELT Only,8/19/2015,45.41792,-75.55974,445.0,445.0,445.0
446,100024763,"Števec kolesarjev -  Novo mesto, Glavni trg ",9/15/2015,45.801926,15.170695000000002,446.0,446.0,446.0
447,100024763,"Števec kolesarjev -  Novo mesto, Glavni trg ",9/15/2015,45.801926,15.170695000000002,447.0,447.0,447.0
448,100025075,Langmatt,12/1/2015,47.03501,8.259913000000001,448.0,448.0,448.0
449,100025076,Schlundstrasse,12/1/2015,47.02812,8.28801,449.0,449.0,449.0
450,100025077,Nidfeldstrasse,1/1/2016,47.02758867,8.298966222999999,450.0,450.0,450.0
451,100025078,Horwerstrasse,12/1/2015,47.03198,8.2837,451.0,451.0,451.0
452,100025079,Langsägestrasse,12/1/2015,47.038303000000006,8.294642,452.0,452.0,452.0
453,100025080,Schachenstrasse,12/1/2015,47.03499833,8.280477756,453.0,453.0,453.0
454,100025080,Schachenstrasse,12/1/2015,47.03499833,8.280477756,454.0,454.0,454.0
455,100025243,Nanny Goat Hill,11/6/2015,45.41563724,-75.70742316,455.0,455.0,455.0
456,100025372,FR3 Eschholzstr. / Egonstraße - Radfahrende im Querschnitt,1/1/2015,47.99968300000001,7.837089999999999,456.0,456.0,456.0
457,100025474,Saint-Laurent/Bellechasse,12/1/2016,45.52781954,-73.60311217,457.0,457.0,457.0
458,100025615,Kyststien Engersand,11/9/2015,59.72830901,10.30333274,458.0,458.0,458.0
459,100025792,O-Train Trillium at Beech,6/24/2016,45.40055472,-75.71112656,459.0,459.0,459.0
460,100026088,Taubenhaus (603),1/1/2012,47.04239000000001,8.302204,460.0,460.0,460.0
461,100026123,San Sebastian,11/8/2015,43.29995,-1.9561509,461.0,461.0,461.0
462,100026124,Bilbao - Ayuntamiento,11/8/2015,43.26413,-2.9240992,462.0,462.0,462.0
463,100026313,"Folsom @ South St. - Non Active, Pending Reconf.",7/20/2015,40.01965,-105.26311499999998,463.0,463.0,463.0
464,100026469,Lysløype Fet,2/26/2016,59.752403,5.3066645,464.0,464.0,464.0
465,100026656,Avenida Gasteiz,11/5/2015,42.849292999999996,-2.6813104,465.0,465.0,465.0
466,100026846,Compteur t'est ,1/1/2016,48.75720027,-3.463690546,466.0,466.0,466.0
467,100027012,Lower Causeway (700 Government - West),6/8/2017,48.42168484,-123.36888359999999,467.0,467.0,467.0
468,100027013,Hotel Rialto (600 Pandora - South),6/7/2017,48.42799149,-123.3649496,468.0,468.0,468.0
469,100027014,Fort St (800 Fort - South),6/7/2017,48.42414782,-123.3619243,469.0,469.0,469.0
470,100027015,Public Market (1700 Douglas - East),6/7/2017,48.42968783,-123.36428500000001,470.0,470.0,470.0
471,100027018,Åsbieskogen (Arendal kommune),6/11/2019,58.45380843,8.725426727,471.0,471.0,471.0
472,100027019,Fevik - strandpromenaden (Grimstad kommune),1/1/2019,58.37142299,8.671525055,472.0,472.0,472.0
473,100027020,Lyngmyr - Fagerhei (Tvedestrand kommune),1/1/2018,58.63120711,8.941505486,473.0,473.0,473.0
474,100027021,Urheia (Risør kommune),2/25/2019,58.72342485,9.232814842,474.0,474.0,474.0
475,100027022,Hasseltangen (Grimstad kommune),1/1/2019,58.392487,8.724341,475.0,475.0,475.0
476,100027039,Hove (Arendal kommune),5/28/2019,58.43630921,8.827339667,476.0,476.0,476.0
477,100027059,Øynaheia (Froland kommune),1/1/2019,58.515868999999995,8.410717779,477.0,477.0,477.0
478,100027060,Dømmesmoen (Grimstad kommune),1/1/2019,58.35562076,8.573935562,478.0,478.0,478.0
479,100027061,Kleivvann/Havrefjell (Gjerstad/Nissedal kommune),1/1/2019,58.884068000000006,8.902749,479.0,479.0,479.0
480,100027062,Myra - lysløypa VSA (Vegårshei kommune),1/1/2019,58.74804706,8.85048204,480.0,480.0,480.0
481,100027063,Hillestadheia (Åmli kommune),1/1/2019,58.82926229,8.193791443,481.0,481.0,481.0
482,100027075,5.14 BN - Mc Cloy Weg,2/1/2016,50.6709115,7.1880155,482.0,482.0,482.0
483,100027076,5.15 BN - Weg auf Damm Neil,2/1/2016,50.73356,7.1155399999999975,483.0,483.0,483.0
484,100027077,5.13 BN - Wilhelm-Spiritus-Ufer,2/1/2016,50.72844501,7.111953889,484.0,484.0,484.0
485,100027116,Butler Trail,2/16/2016,30.27475183,-97.77071379,485.0,485.0,485.0
486,100027141,Svartneset,11/13/2015,63.42966461,10.80533054,486.0,486.0,486.0
487,100027494,R. Vergueiro,1/16/2016,-23.577775199999998,-46.64073932,487.0,487.0,487.0
488,100027495,Faria Lima,1/18/2016,-23.56881700000001,-46.69212,488.0,488.0,488.0
489,100027939,Klevvann(Gjerstad kommune),1/1/2018,58.88407291,8.90214266,489.0,489.0,489.0
490,100028002,Piloto Lx,1/26/2016,38.73515759,-9.144545259,490.0,490.0,490.0
491,100028353,Gabriela Mistral con Andes,1/1/2017,-38.72913,-72.62009,491.0,491.0,491.0
492,100029087,1200 Penn Bikes Only,4/15/2016,40.44608,-79.99171,492.0,492.0,492.0
493,100029088,900 Penn Bikes Only,4/15/2016,40.44419,-79.99679,493.0,493.0,493.0
494,100029089,600 Penn Bikes,4/2/2015,40.442776,-80.00171999999998,494.0,494.0,494.0
495,100029120,Penn 1200 Bikes Only,4/15/2016,40.44608,-79.99171,495.0,495.0,495.0
496,100029121,Penn 900 Bikes Only,4/15/2016,40.44419,-79.99679,496.0,496.0,496.0
497,100029123,Penn 600 Bikes Only,4/15/2016,40.442809999999994,-80.00173000000002,497.0,497.0,497.0
498,100029851,NTFK #4,5/11/2016,63.87266999999999,11.294360000000001,498.0,498.0,498.0
499,100029854,03 K - Hohenzollernbrücke,4/1/2016,50.941179999999996,6.9701,499.0,499.0,499.0
500,100029902,Sickla allé/ Sickla strand,4/28/2016,59.30272157,18.11636216,500.0,500.0,500.0
501,100029903,Järlaleden,4/28/2016,59.3058196,18.13492483,501.0,501.0,501.0
502,100029904,Värmdövägen Nacka Forum,5/2/2016,59.30826871,18.16312815,502.0,502.0,502.0
503,100029905,Värmdövägen Björknäs,5/2/2016,59.31535373,18.23008284,503.0,503.0,503.0
504,100029916,Pinawa Friends of the Trans Canada Trail,5/7/2016,50.14468,-95.87556,504.0,504.0,504.0
505,100029965,Ernst-Walz-Brücke Richtung Stadt,6/1/2014,49.408844,8.676708999999999,505.0,505.0,505.0
506,100029972,Knox Mountain - Apex Trail,5/15/2017,49.89215399,-119.4056446,506.0,506.0,506.0
507,100030145,Ritz Hotel (700 Fort - North),6/7/2017,48.42466065,-123.364871,507.0,507.0,507.0
508,100030168,Rails with Trails,3/22/2016,49.887615000000004,-119.4569,508.0,508.0,508.0
509,100030332,Bjørgan skianlegg #1,3/27/2016,64.39220551,12.33317157,509.0,509.0,509.0
510,100030353,Toteemi,4/27/2016,60.47905,22.19256,510.0,510.0,510.0
511,100030402,Bow River Pathway,3/30/2016,51.04957609,-114.08638559999999,511.0,511.0,511.0
512,100030418,04 K - Neumarkt kpl,3/24/2016,50.93637257,6.947836757,512.0,512.0,512.0
513,100030452,9 Ave West of 4 St SE,6/16/2015,51.04436368,-114.0539707,513.0,513.0,513.0
514,100030470,Sentier de la marinade,4/6/2016,45.84913,4.84667,514.0,514.0,514.0
515,100030488,Clifton NB,3/22/2016,49.892555,-119.46571000000002,515.0,515.0,515.0
516,100030490,Clifton SB,3/22/2016,49.8925189,-119.4658804,516.0,516.0,516.0
517,100030491,Ethel St ATC,3/22/2016,49.88467107,-119.4828044,517.0,517.0,517.0
518,100030517,06 K - Zülpicher Straße kpl.,4/7/2016,50.92740654,6.93428398,518.0,518.0,518.0
519,100030584,Sentiers des Grandes Terres,4/8/2016,45.6712,4.8757696,519.0,519.0,519.0
520,100030585,Sentier de Sacuny,4/8/2016,45.687847,4.777019999999999,520.0,520.0,520.0
521,100030586,Sentier du Biézin nature,4/8/2016,45.754517,4.9588695,521.0,521.0,521.0
522,100030610,Pensacola Street at Martin Luther King Jr. Blvd,11/29/2016,30.43876859,-84.28628747,522.0,522.0,522.0
523,100030611,Madison Street at Boulevard Street,1/19/2017,30.4382559,-84.2807329,523.0,523.0,523.0
524,100030630,Sentier de Sermenaz,4/18/2016,45.81894000000001,4.908427,524.0,524.0,524.0
525,100030638,Sentier du bois de Serres,4/18/2016,45.796566,4.7575192,525.0,525.0,525.0
526,100030640,Sentier jeu de regards,4/18/2016,45.774570000000004,4.7296830000000005,526.0,526.0,526.0
527,100030642,Sentier du vallon de l'Yzeron,4/18/2016,45.742382,4.739413,527.0,527.0,527.0
528,100030651,Sentier de l'Homme et du Paysage,4/19/2016,45.83286,4.808203,528.0,528.0,528.0
529,100030652,Sentier du ruisseau de Rochecardon,4/19/2016,45.809753,4.782476,529.0,529.0,529.0
530,100030659,Boucle du Franc Lyonnais,4/19/2016,45.883167,4.854068,530.0,530.0,530.0
531,100030676,Sentier de l'Homme et du fleuve,4/20/2016,45.641506,4.815302,531.0,531.0,531.0
532,100030761,8 Ave West of 3 Street SW,7/10/2015,51.045746,-114.07066999999999,532.0,532.0,532.0
533,100030761,8 Ave West of 3 Street SW,7/10/2015,51.045746,-114.07066999999999,533.0,533.0,533.0
534,100030768,8 Ave West of 3 Street,7/9/2015,51.045742,-114.07051000000001,534.0,534.0,534.0
535,100030820,Seattle 2nd Avenue,4/23/2016,47.60478163,-122.33476280000001,535.0,535.0,535.0
536,100030837,Adawe Crossing,12/4/2015,45.42604608,-75.67060983,536.0,536.0,536.0
537,100030931,Pablo Neruda con Olimpia,1/1/2017,-38.73991455,-72.62299490000002,537.0,537.0,537.0
538,100030932,Pablo Neruda con J. Carrera ,1/1/2017,-38.73847,-72.62889,538.0,538.0,538.0
539,100030933,Gabriela Mistral con Recreo.,1/1/2017,-38.728429999999996,-72.61454,539.0,539.0,539.0
540,100030934,Hochstetter con B. O´Higgins ,1/1/2017,-38.73938,-72.61802,540.0,540.0,540.0
541,100030935,Hochstetter con Pucon,1/1/2017,-38.72965,-72.61093000000002,541.0,541.0,541.0
542,100030986,Challenge Velo D788 (face IUT),5/4/2016,48.758408,-3.4536480000000003,542.0,542.0,542.0
543,100030989,D788 (face NOKIA),5/5/2016,48.758378,-3.453864,543.0,543.0,543.0
544,100030993,rue blaise Pascal (face construction Parlouer),5/4/2016,48.759809999999995,-3.47949,544.0,544.0,544.0
545,100031062,Bologna - Via Sabotino,5/18/2016,44.497074,11.323423,545.0,545.0,545.0
546,100031197,"Solemstien, Overhalla NTFK#1 ",5/19/2016,64.54289,11.97386,546.0,546.0,546.0
547,100031222,D788,5/1/2016,48.75861,-3.4536263999999997,547.0,547.0,547.0
548,100031285,Eco-Totem BH,6/28/2016,-19.932713,-43.929935,548.0,548.0,548.0
549,100031435,Levanger Moan NTFK #2,5/31/2016,63.74305,11.279907000000001,549.0,549.0,549.0
550,100031441,8th Ave west of 8th street,6/15/2015,51.045986,-114.081795,550.0,550.0,550.0
551,100031480,Rock Creek Trail 1,4/28/2017,39.016129,-77.094196,551.0,551.0,551.0
552,100031482,Matthew Henson Trail 1,4/28/2017,39.08165896,-77.04735782,552.0,552.0,552.0
553,100031483,Rock Creek Trail 2,8/15/2016,39.090257,-77.113817,553.0,553.0,553.0
554,100031483,Rock Creek Trail 2,8/15/2016,39.090257,-77.113817,554.0,554.0,554.0
555,100031968,Randvik,5/28/2019,58.709534,9.222121000000001,555.0,555.0,555.0
556,100031969,Lyngør (Tvedestrand kommune),1/1/2019,58.63335,9.135264,556.0,556.0,556.0
557,100031970,Granestua (Arendal kommune),1/1/2019,58.528156,8.753503,557.0,557.0,557.0
558,100031971,Merdø (Arendal kommune),1/1/2019,58.42606,8.805114,558.0,558.0,558.0
559,100032128,Troldhaugen,10/27/2016,60.31947185,5.329154569,559.0,559.0,559.0
560,100032129,Siljustøl,10/6/2016,60.29351186,5.298078441,560.0,560.0,560.0
561,100032130,Lysøen,10/6/2016,60.21373815,5.36198853,561.0,561.0,561.0
562,100032131,KODE 3,8/19/2016,60.3895,5.3275757000000015,562.0,562.0,562.0
563,100032146,NCC Western Canal Pathway at Ritz - Ottawa Counter,7/3/2015,45.40675,-75.68186,563.0,563.0,563.0
564,100032152,Invalidenstraße,6/1/2015,52.52718,13.372020000000001,564.0,564.0,564.0
565,100032154,Frankfurter Allee,6/1/2016,52.51373868,13.47436716,565.0,565.0,565.0
566,100032155,Berliner Straße,5/1/2016,52.56681,13.412170000000001,566.0,566.0,566.0
567,100032159,Schwedter Steg,4/1/2012,52.54884000000001,13.40037,567.0,567.0,567.0
568,100032161,Klosterstraße,6/1/2016,52.533665,13.198963000000001,568.0,568.0,568.0
569,100032163,Breitenbachplatz,5/1/2016,52.46676,13.30916,569.0,569.0,569.0
570,100032165,Monumentenstraße,5/1/2015,52.488119999999995,13.36979,570.0,570.0,570.0
571,100032166,Mariendorfer Damm,5/1/2016,52.43830500000001,13.387879000000002,571.0,571.0,571.0
572,100032169,Markstraße,5/1/2015,52.55819,13.364939999999999,572.0,572.0,572.0
573,100032212,Oberbaumbrücke,6/1/2015,52.5012,13.44506,573.0,573.0,573.0
574,100032236,Maybachufer,5/1/2016,52.49311816,13.42914925,574.0,574.0,574.0
575,100032237,Kaisersteg,5/1/2016,52.45775788,13.5193596,575.0,575.0,575.0
576,100032269,Kvaløya,7/22/2016,69.689699,18.811951999999998,576.0,576.0,576.0
577,100032454,Konrad Adenauer Allee,9/17/2016,48.36373435,10.895953,577.0,577.0,577.0
578,100032641,UCLA Westwood Bike Counter,5/9/2017,34.06431432,-118.445247,578.0,578.0,578.0
579,100032655,James Street Stairs,7/7/2016,43.24614678,-79.87411673,579.0,579.0,579.0
580,100032657,Wentworth Street Stairs,7/7/2016,43.24326768,-79.85264226,580.0,580.0,580.0
581,100032661,Kimberly Drive Stairs,7/7/2016,43.22907365,-79.81381454,581.0,581.0,581.0
582,100032714,Chedoke Stairs,7/5/2016,43.24569463,-79.90691219,582.0,582.0,582.0
583,100032715,Dundurn Street Stairs,7/5/2016,43.24546521,-79.89521739,583.0,583.0,583.0
584,100032754,King Street West Cycle Track,7/19/2016,43.26274122,-79.89090887,584.0,584.0,584.0
585,100032755,Waterfront Trail (Bayfront Park),7/12/2016,43.26928668,-79.87249888,585.0,585.0,585.0
586,100032772,Südbrücke,5/1/2016,50.71763663,7.143513523999999,586.0,586.0,586.0
587,100032920,Cyrville Road,11/16/2016,45.4235124,-75.63509872,587.0,587.0,587.0
588,100032983,KunstLab,8/15/2016,60.38929399999999,5.3289094000000015,588.0,588.0,588.0
589,100033028,University Ave. Bike Lane (Rowe),4/27/2017,44.6370275,-63.5882169,589.0,589.0,589.0
590,100033035,Paul- und Paula-Uferweg,6/1/2015,52.50025,13.474379999999998,590.0,590.0,590.0
591,100033037,Alberichstraße,7/1/2015,52.4925,13.558489999999999,591.0,591.0,591.0
592,100033038,Yorckstraße,4/1/2015,52.49199,13.374120000000001,592.0,592.0,592.0
593,100033039,Prinzregentenstraße,4/1/2015,52.49058,13.333079999999999,593.0,593.0,593.0
594,100033088,KODE 4 ,8/25/2016,60.389313,5.328995,594.0,594.0,594.0
595,100033089,KODE 2,8/19/2016,60.39006800000001,5.3253474,595.0,595.0,595.0
596,100033127,沧州解放西路自行车计数,12/11/2016,38.30372,116.82741000000001,596.0,596.0,596.0
597,100033128,沧州运河绿道客流计数,10/1/2016,38.308820000000004,116.84638000000001,597.0,597.0,597.0
598,100033129,北京杨梅竹斜街胡同多方式计数,10/3/2016,39.89433351,116.38636499999998,598.0,598.0,598.0
599,100033130,北工大便携计数,9/30/2016,39.894337,116.38904,599.0,599.0,599.0
600,100033550,Edmonton Trail,9/7/2016,51.051323,-114.050316,600.0,600.0,600.0
601,100033615,Friedrichstr,9/21/2016,51.21577,6.77688,601.0,601.0,601.0
602,100033660,Elisabethstr,9/21/2016,51.21722715,6.775415967000001,602.0,602.0,602.0
603,100033674,Suvantosilta1,10/10/2016,62.59779245,29.76352289,603.0,603.0,603.0
604,100033675,Suvantosilta 2,10/10/2016,62.59809,29.763579999999997,604.0,604.0,604.0
605,100033917,Belmont Pier Eco-TOTEM,9/21/2016,33.75895442,-118.14846270000001,605.0,605.0,605.0
606,100033965,HCC Tube Counter,8/30/2018,44.64115,-63.57923,606.0,606.0,606.0
607,100033984,Árpád híd,12/2/2016,47.53654858,19.05872914,607.0,607.0,607.0
608,100033985,Bem rakpart,12/2/2016,47.512257700000006,19.03949621,608.0,608.0,608.0
609,100033986,Weiss Manfréd út,12/3/2016,47.45627915,19.07142798,609.0,609.0,609.0
610,100033987,Hungária körút,12/1/2016,47.48898391,19.10923998,610.0,610.0,610.0
611,100033989,Lágymányosi híd,10/30/2016,47.46876479,19.07097952,611.0,611.0,611.0
612,100034053,Matthew Henson Trail 2,8/16/2016,39.058318,-77.0916,612.0,612.0,612.0
613,100034165,O'Connor @ Argyle,10/13/2016,45.41172757,-75.69040081,613.0,613.0,613.0
614,100034249,Arsenal ,12/13/2016,47.03814058,8.299547643,614.0,614.0,614.0
615,100034250,Kleinmatt,12/13/2016,47.04077957,8.306729119,615.0,615.0,615.0
616,100034452,Kvarnholmsvägen,12/5/2016,59.31198464,18.10941893,616.0,616.0,616.0
617,100034495,Marine Parade,5/2/2013,-39.500788799999995,176.9193886,617.0,617.0,617.0
618,100034496,Gloucester Street Taradale,2/3/2017,-39.54778958,176.8400694,618.0,618.0,618.0
619,100034497,Clifton Road,2/24/2017,-39.62194752,176.96287080000005,619.0,619.0,619.0
620,100034500,Main @ Evelyn,6/17/2017,45.41136628,-75.67931701,620.0,620.0,620.0
621,100034501,Main @ Centennial,6/17/2017,45.401682,-75.67365806,621.0,621.0,621.0
622,100034648,Santa Monica – Bike Counter – Main Street,12/21/2016,34.01196759,-118.492668,622.0,622.0,622.0
623,100034761,Műegyetem rakpart K. épület,11/21/2016,47.48224307,19.05623535,623.0,623.0,623.0
624,100034882,König-Karls-Brücke,7/1/2012,48.79912609,9.210372162,624.0,624.0,624.0
625,100034893,Hundertmännerstraße,1/1/2014,54.081974,12.114006,625.0,625.0,625.0
626,100034894,Böblinger Straße,1/1/2014,48.74661091,9.135662267999999,626.0,626.0,626.0
627,100034894,Böblinger Straße,1/1/2014,48.74661091,9.135662267999999,627.0,627.0,627.0
628,100035004,Nordbrücke,5/1/2015,50.75639231,7.099492972,628.0,628.0,628.0
629,100035097,Langensandbrücke ,12/1/2016,47.04544,8.309289999999999,629.0,629.0,629.0
630,100035126,8 Gillie Creek,2/18/2017,37.52275451,-77.41788135,630.0,630.0,630.0
631,100035172,Remington Bicycle Counter,12/11/2016,40.56887055,-105.0753297,631.0,631.0,631.0
632,100035242,Mackenzie @ Rideau,1/1/2017,45.42551994,-75.69437669999998,632.0,632.0,632.0
633,100035361,Waiblinger Str. Ri. Stadtmitte,12/14/2016,48.80515,9.226410000000001,633.0,633.0,633.0
634,100035363,Waibl Stadtmitte,12/14/2016,48.80516,9.226289999999999,634.0,634.0,634.0
635,100035631,Sunna kanal,5/10/2017,56.18880223,15.61322881,635.0,635.0,635.0
636,100035632,Söder om Torskors ind.område,5/10/2017,56.21513079,15.63985971,636.0,636.0,636.0
637,100035633,Verkö/Lyckeby,5/10/2017,56.19450171,15.64115834,637.0,637.0,637.0
638,100035640,Alcazar,3/15/2017,-37.47648361,-72.36265417,638.0,638.0,638.0
639,100035876,Cannon Street Cycle Track (West) - Total,12/11/2015,43.25799372,-79.85604196,639.0,639.0,639.0
640,100035887,Cannon Street Cycle Track (Bay) - Total,12/11/2015,43.26200686,-79.87299412,640.0,640.0,640.0
641,100036173,"Via Traiana - Parco Naturale Regionale ""Dune Costiere""",3/31/2017,40.78535953,17.51081825,641.0,641.0,641.0
642,100036173,"Via Traiana - Parco Naturale Regionale ""Dune Costiere""",3/31/2017,40.78535953,17.51081825,642.0,642.0,642.0
643,100036476,University Avenue Bike Display,4/28/2017,44.63761253,-63.58840039,643.0,643.0,643.0
644,100036486,Schachenstr. Velo,12/1/2015,47.03497312,8.280624241,644.0,644.0,644.0
645,100036488,Langsägestrasse Velo,12/1/2015,47.0383,8.29464,645.0,645.0,645.0
646,100036489,Langsägestrasse Velo,12/1/2015,47.0383,8.29464,646.0,646.0,646.0
647,100036499,403 (Hamilton-Brantford Trail),2/23/2017,43.25185328,-79.90994917,647.0,647.0,647.0
648,100036499,403 (Hamilton-Brantford Trail),2/23/2017,43.25185328,-79.90994917,648.0,648.0,648.0
649,100037010,Hinrichshagen,3/27/2017,54.19088341,12.18219011,649.0,649.0,649.0
650,100037011,Markgrafenheide,3/27/2017,54.19103434,12.18094564,650.0,650.0,650.0
651,100037012,Graal-Müritz,6/16/2015,54.19104662,12.18174004,651.0,651.0,651.0
652,100037111,Świnoujście,5/15/2017,53.92647772,14.2261767,652.0,652.0,652.0
653,100037112,Rogowo,5/15/2017,54.15462697,15.37698812,653.0,653.0,653.0
654,100037122,King St. West & Cannon St. (Bay) Cycle Track Total,12/9/2014,43.259419,-79.878747,654.0,654.0,654.0
655,100037170,König-Karls-Brücke ,7/1/2012,48.79907109,9.210355904,655.0,655.0,655.0
656,100037243,Av. Eng. J. Meireles,4/13/2017,37.0828052,-8.117742945,656.0,656.0,656.0
657,100037306,Av. da Marina,4/13/2017,37.0774987,-8.116660011,657.0,657.0,657.0
658,100037429,YSH17042064,7/9/2018,0.0,0.0,658.0,658.0,658.0
659,100037444,FMI00000454,4/24/2017,50.65816974,4.580880085,659.0,659.0,659.0
660,100037507,Waiblinger Str. Ri. Augsburger Platz,1/1/2014,48.80498248,9.226468548,660.0,660.0,660.0
661,100037508,Taubenheimstr. von Deckerstr.,1/1/2014,48.80495412,9.226962275,661.0,661.0,661.0
662,100037687,Corso Nizza Display,5/21/2017,44.38639039,7.544525342999999,662.0,662.0,662.0
663,100037688,Corso Nizza Provincia,5/16/2017,44.386241,7.544756887999999,663.0,663.0,663.0
664,100037750,Waterlily,6/6/2017,48.64880332,-123.39517350000001,664.0,664.0,664.0
665,100037899,Glenlyon - North Fraser Way,9/19/2017,49.20034636,-123.01024469999999,665.0,665.0,665.0
666,100038129,Contabici Corso Nizza,5/21/2017,44.38624,7.544760000000001,666.0,666.0,666.0
667,100038433,Santuario Angeli,10/20/2017,44.36845907,7.538894203,667.0,667.0,667.0
668,100038434,Pedancola Vassallo,10/19/2017,44.39322455,7.535487002999999,668.0,668.0,668.0
669,100038466,Silk Road (1600 Government - West),6/7/2017,48.42913168,-123.36725420000002,669.0,669.0,669.0
670,100038528,"Stephen Ave Counts (Pedestrians, Bikes & Cars)",10/22/2014,51.04554629,-114.0647387,670.0,670.0,670.0
671,100038690,Sirkkalan silta Etelä,7/24/2017,62.60307989,29.7690218,671.0,671.0,671.0
672,100038691,Sirkkalan silta Pohj,7/24/2017,62.602619999999995,29.773490000000002,672.0,672.0,672.0
673,100039000,Willingdon Linear Park - Brentlawn,11/29/2017,49.26981746,-123.0027419,673.0,673.0,673.0
674,100039001,Willingdon Linear Park - Frances,7/4/2017,49.27908506,-123.00303670000001,674.0,674.0,674.0
675,100039002,Willingdon Linear Park - Hastings,7/4/2017,49.28071329,-123.0028758,675.0,675.0,675.0
676,100039435,Wagenhalsstraße,12/1/2017,48.36483,10.90473,676.0,676.0,676.0
677,100039469,Radweg an der Aurach,1/1/2018,49.56765,10.880419999999999,677.0,677.0,677.0
678,100039609,MacArthur Ave Display,11/23/2017,-35.25991255,149.1280486,678.0,678.0,678.0
679,100039656,La Pignatta,7/27/2017,48.64765662,-123.4000446,679.0,679.0,679.0
680,100039659,7-11 Beacon Ave.,7/27/2017,48.64902116,-123.40254979999999,680.0,680.0,680.0
681,100039661,Willingdon - Deer Lake Pkwy,2/18/2018,49.24359000000001,-123.00298000000001,681.0,681.0,681.0
682,100039662,Willingdon - Goard Way,2/18/2018,49.252159999999996,-123.00436,682.0,682.0,682.0
683,100039663,Willingdon - Sanderson Way,2/18/2018,49.24824,-123.00423,683.0,683.0,683.0
684,100040109,Bicivia 7,3/14/2018,41.383213299999994,2.106744716,684.0,684.0,684.0
685,100040135,High Rock Park_Blue & Yellow_Trail,1/16/2019,40.79162052,-73.93507426,685.0,685.0,685.0
686,100040190,Apache South Site,1/3/2018,33.41486337,-111.9348541,686.0,686.0,686.0
687,100040191,Forest North Site,1/4/2018,33.42182202,-111.9366657,687.0,687.0,687.0
688,100040193,LaTourette Park--GNC Trail/Bridge,8/1/2018,40.76760988,-73.97130226,688.0,688.0,688.0
689,100040476,Ulrichsbrücke,1/1/2017,48.37601197,10.91323737,689.0,689.0,689.0
690,100040696,Adawe Crossing Cyclists,12/26/2009,45.42604608,-75.67060983,690.0,690.0,690.0
691,100040697,Adawe Crossing Peds/Pietons,12/26/2009,45.42604608,-75.67060983,691.0,691.0,691.0
692,100040870,Leipzig,10/25/2017,51.33587154,12.36744767,692.0,692.0,692.0
693,100041000,West Giralda,10/13/2017,25.75127,-80.25872,693.0,693.0,693.0
694,100041114,Eco-Display Parc Stanley,5/29/2018,45.55759297,-73.67322198,694.0,694.0,694.0
695,100041252,Vidden,11/27/2017,60.3833333,5.4,695.0,695.0,695.0
696,100041597,Entdeckerpfad,11/28/2017,54.18458914,12.23723796,696.0,696.0,696.0
697,100041680,NCC Western Canal Pathway at Ritz - Oct 2017 ,10/6/2017,45.40675112,-75.68175771,697.0,697.0,697.0
698,100041791,Mackenzie @ Rideau Peds,12/25/2009,45.42551467,-75.69437409999998,698.0,698.0,698.0
699,100041792,Mackenzie @ Rideau Bikes,12/25/2009,45.42547667,-75.69435553,699.0,699.0,699.0
700,100041858,PORTA S  VITALE BOLOGNA,1/5/2018,44.49380879,11.35710676,700.0,700.0,700.0
701,100041999,Stadt Ludwigsburg Radzählstelle Alleenstraße ,12/19/2017,48.89318854,9.192943239,701.0,701.0,701.0
702,100042000,Eco-Display Turuntie,12/12/2017,60.99234797,24.44476398,702.0,702.0,702.0
703,100042081,Repokallio,12/7/2017,62.62409,29.69158,703.0,703.0,703.0
704,100042082,Lykynlampi,12/7/2017,62.68911,29.72692,704.0,704.0,704.0
705,100042159,Kardaun,1/4/2018,46.49466585,11.39027576,705.0,705.0,705.0
706,100042228,Poznań - pl.Wolności,3/30/2018,52.40780212,16.9262317,706.0,706.0,706.0
707,100042233,Pötkä,12/13/2017,62.60536805,29.77099377,707.0,707.0,707.0
708,100042272,Alexandrinenstr. ,7/26/2018,53.63673000000001,11.410919999999999,708.0,708.0,708.0
709,100042273,Franzosenweg,4/19/2018,53.6214,11.4213,709.0,709.0,709.0
710,100042274,Ostorfer Ufer,4/19/2018,53.61453,11.41205,710.0,710.0,710.0
711,100042275,Lübecker Str.       ,4/19/2018,53.63644,11.39811,711.0,711.0,711.0
712,100042310,Havrefjell (Nissedal kommune),5/1/2019,58.93023309,8.737715879,712.0,712.0,712.0
713,100042383,Darłowo,2/8/2018,0.0,0.0,713.0,713.0,713.0
714,100042617,Schnettkerbrücke,1/23/2018,51.49925,7.42673,714.0,714.0,714.0
715,100042858,Display,3/22/2018,41.23895579,-8.632939269,715.0,715.0,715.0
716,100042868,Multi,2/23/2018,41.22780975,-8.632614857,716.0,716.0,716.0
717,100042890,Estação,3/23/2018,41.2343917,-8.635428291,717.0,717.0,717.0
718,100042914,East Giralda.,10/13/2017,25.7513483,-80.25727175,718.0,718.0,718.0
719,100042915,West Giralda.,10/13/2017,25.75128259,-80.25814151,719.0,719.0,719.0
720,100043047,Darłowo,2/4/2018,54.41148991,16.396254000000006,720.0,720.0,720.0
721,100043573,Licznik rowerowy - Armii Krajowej,4/23/2018,54.09917220000001,18.764953600000002,721.0,721.0,721.0
722,100043574,Licznik rowerowy - ul.Gdańska,4/23/2018,54.101240000000004,18.778760000000002,722.0,722.0,722.0
723,100043664,Burberry - 1101 Alberni Street,2/18/2018,49.28539934,-123.1238142,723.0,723.0,723.0
724,100043719,Strellson - 1108 Alberni St,2/22/2018,49.28563523,-123.12446920000001,724.0,724.0,724.0
725,100043720,Cornerston college - 609 W Hastings St,2/22/2018,49.28502194,-123.1132138,725.0,725.0,725.0
726,100043721,Vancouver Pen Shop - 512 W Hastings St,2/22/2018,49.28413597,-123.11224879999999,726.0,726.0,726.0
727,100043803,SFU school of Business - 500 Granville St,3/2/2018,49.28447396,-123.1149726,727.0,727.0,727.0
728,100043805,Granville Station- 600 Granville St ,3/2/2018,49.28309024,-123.1170642,728.0,728.0,728.0
729,100044068,Bob Jones Trail,5/5/2018,35.185,-120.704,729.0,729.0,729.0
730,100044104,X2I18034731,3/21/2018,37.09603938,-8.126772908,730.0,730.0,730.0
731,100044105,XSI18034634,4/20/2018,37.07748,-8.11646,731.0,731.0,731.0
732,100044106,XSI18034635,4/21/2018,37.07776936,-8.11616842,732.0,732.0,732.0
733,100044687,............................. Wojska Polskiego,4/23/2018,54.09114,18.7821,733.0,733.0,733.0
734,100044713,Rumble w.o. Nelson YAI18044990,1/28/2019,49.214909999999996,-122.99473,734.0,734.0,734.0
735,100044729,05 Deutzer Brücke kpl.,4/5/2016,50.93649,6.96658,735.0,735.0,735.0
736,100045094,Vorgebirgswall,5/18/2018,50.92054908,6.94476961,736.0,736.0,736.0
737,100045372,Oppstemten,6/29/2018,60.37285441,5.380287571,737.0,737.0,737.0
738,100045471,Brook,7/2/2018,54.00581,11.043330000000001,738.0,738.0,738.0
739,100045472,Klausdorf,7/18/2018,54.40105,13.02003,739.0,739.0,739.0
740,100045818,Eco-Display Rennes Metropole - Place de Bretagne,6/18/2018,48.11003,-1.6841400000000002,740.0,740.0,740.0
741,100045869,Arendalsuka (Arendal sentrum),8/12/2019,58.459737399999995,8.76477406,741.0,741.0,741.0
742,100046184,Chwarstnica,7/9/2018,53.20733794,14.61512751,742.0,742.0,742.0
743,100046493,ESPOCH001,7/3/2018,-1.67577,-78.64461999999997,743.0,743.0,743.0
744,100046544,Regementsgatan,10/5/2018,55.43102287,13.83076211,744.0,744.0,744.0
745,100046689,Bilker Allee,8/6/2012,51.21074,6.771311,745.0,745.0,745.0
746,100046798,Alexandrastraße,8/10/2018,49.97315,9.150789999999999,746.0,746.0,746.0
747,100047053,Münchener/ Ickeswarder Str,9/5/2018,51.176520000000004,6.809260000000001,747.0,747.0,747.0
748,100047054,Fleher Deich,8/21/2018,51.18775,6.77722,748.0,748.0,748.0
749,100047229,Bishop_Nord (6021) f(x),7/1/2018,45.496894,-73.5761508,749.0,749.0,749.0
750,100047279,Koblenzer Gesamt,8/6/2012,51.14898,6.88668,750.0,750.0,750.0
751,100047280,Oberkasseler Brücke,8/6/2012,51.23166,6.7632,751.0,751.0,751.0
752,100047281,Fleher Deich Rampe,8/6/2012,51.188340000000004,6.775710000000001,752.0,752.0,752.0
753,100047339,Cathcart_Est (6526),7/30/2019,45.50160741,-73.57055875,753.0,753.0,753.0
754,100047355,Ste.Catherine_Est (7834),8/21/2018,0.0,0.0,754.0,754.0,754.0
755,100047356,Kennedy_Est (7836),5/5/2019,36.07845,-94.16919,755.0,755.0,755.0
756,100047369,Argyle Street - Loaner,8/8/2018,0.0,0.0,756.0,756.0,756.0
757,100047459,Catherine/ Cathcart Ouest,7/18/2018,45.50151533,-73.57051814,757.0,757.0,757.0
758,100047467,McGill / Sainte-Catherine côté ouest,8/24/2018,45.50230809,-73.57212139,758.0,758.0,758.0
759,100047468,McGill / Maisonneuve côté est,8/24/2018,45.50295502,-73.57296844,759.0,759.0,759.0
760,100047475,McGill / Président-Kennedy côté ouest,8/24/2018,45.50366376,-73.57425516,760.0,760.0,760.0
761,100047476,Nowe Objezierze,9/5/2018,52.86478813,14.3609413,761.0,761.0,761.0
762,100047514,McGil / Cathcart côté est,8/24/2018,45.50164355,-73.5701871,762.0,762.0,762.0
763,100047517,McGill / Cathcart côté ouest,8/24/2018,45.5014939,-73.57056073,763.0,763.0,763.0
764,100047519,McGill / Sainte-Catherine côté est,8/24/2018,45.50215129,-73.57132402,764.0,764.0,764.0
765,100047523,McGill / Maisonneuve côté ouest,8/24/2018,45.50286559,-73.57339765,765.0,765.0,765.0
766,100047527,McGill / Président-Kennedy côté est,8/24/2018,45.50341751,-73.57455401,766.0,766.0,766.0
767,100047647,Praha - Podolí,9/17/2018,50.05949687,14.41919219,767.0,767.0,767.0
768,100047745,Connect the Crescent,9/20/2018,29.95085,-90.06567,768.0,768.0,768.0
769,100047999,A5123 The Racecourse - TTech Totem,1/8/2019,52.24666,-0.8827299999999999,769.0,769.0,769.0
770,100048274,Hamang – Sandvika,11/9/2018,59.89256517,10.51636226,770.0,770.0,770.0
771,100048275,Skytterdalen,11/9/2018,59.89861063,10.52916643,771.0,771.0,771.0
772,100048276,Holtekilen,11/8/2018,59.90116742,10.61013518,772.0,772.0,772.0
773,100048277,Lommedalsveien,11/7/2018,59.94616287,10.505180900000001,773.0,773.0,773.0
774,100048278,Gml. Lommedalsvei,11/8/2018,59.93052546,10.49542087,774.0,774.0,774.0
775,100048279,Brynsveien - Kolsås,11/8/2018,59.91559245,10.49958822,775.0,775.0,775.0
776,100048280,Haslum,11/1/2018,59.91993125,10.57808416,776.0,776.0,776.0
777,100048281,Kirkeveien/Bærumsveien,11/8/2018,59.91225997,10.56360911,777.0,777.0,777.0
778,100048282,Bjørnegårdssvingen,11/7/2018,59.9002907,10.49471094,778.0,778.0,778.0
779,100048329,Sandviksveien,10/21/2018,59.88734431,10.51981412,779.0,779.0,779.0
780,100048330,Kjørbo,10/21/2018,59.88642365,10.52365352,780.0,780.0,780.0
781,100048409,2600 blk,1/26/2019,49.26215806,-123.1384832,781.0,781.0,781.0
782,100048410,2700 blk,1/26/2019,49.26124084,-123.13876210000001,782.0,782.0,782.0
783,100048411,2400 blk,1/26/2019,49.26412898,-123.13882109999999,783.0,783.0,783.0
784,100048412,2500 blk,1/26/2019,49.26311377,-123.138451,784.0,784.0,784.0
785,100048413,2800 blk,1/26/2019,49.26024658,-123.1385368,785.0,785.0,785.0
786,100048414,3000 blk,1/26/2019,49.25842605,-123.13863870000002,786.0,786.0,786.0
787,100048415,3100 blk,1/26/2019,49.25723217,-123.138966,787.0,787.0,787.0
788,100048416,2900 blk,1/26/2019,49.25942735,-123.13882109999999,788.0,788.0,788.0
789,100048811,Ernst-Walz-Brücke Querschnitt,10/11/2018,49.40953403,8.676711154,789.0,789.0,789.0
790,100048812,Thedor-Heuss-Brücke Querschnitt,10/11/2018,49.4117917,8.692717007,790.0,790.0,790.0
791,100048813,Rohrbacher Straße Querschnitt,10/11/2018,49.397682399999994,8.689534723,791.0,791.0,791.0
792,100048814,Liebermannstraße,10/11/2018,49.3963274,8.688098472,792.0,792.0,792.0
793,100048863,Springorumtrasse,11/22/2018,51.46881,7.22925,793.0,793.0,793.0
794,100048864,Wittener Str. stadteinwärts,11/22/2018,51.47985,7.2245399999999975,794.0,794.0,794.0
795,100048865,Wittener Str. stadtauswärts,11/22/2018,51.47864000000001,7.2259699999999984,795.0,795.0,795.0
796,100048878,Totem C-31,12/20/2018,41.33863022,2.099739049,796.0,796.0,796.0
797,100049071,Wittener Str. Gesamt,11/22/2018,51.47929181,7.2251914410000015,797.0,797.0,797.0
798,100049119,SAN DONATO,4/20/2019,44.512313,11.386013,798.0,798.0,798.0
799,100049218,Sant Just,1/5/2019,41.37830359,2.080024083,799.0,799.0,799.0
800,100049358,Via Sabotino,12/18/2018,44.497062,11.322866000000001,800.0,800.0,800.0
801,100049600,Totem Esplugues,2/15/2019,41.37740431,2.088721991,801.0,801.0,801.0
802,100049883,Schlierbacher Landstraße,2/1/2019,49.41470485,8.718395942999999,802.0,802.0,802.0
803,100049884,Kurfürstenanlage Nord,2/1/2019,49.4067,8.68863,803.0,803.0,803.0
804,100049885,Kurfürstenanlage Süd,2/1/2019,49.40642825,8.688607322000001,804.0,804.0,804.0
805,100049901,Ziegelhäuser Landstraße,2/1/2019,49.41925887,8.725964292,805.0,805.0,805.0
806,100050003,SPARE,3/1/2019,0.0,0.0,806.0,806.0,806.0
807,100050004,2100 blk,3/1/2019,49.26647788,-123.1383061,807.0,807.0,807.0
808,100050005,2300 blk,3/1/2019,49.2647665,-123.1382469,808.0,808.0,808.0
809,100050006,2200 blk,12/10/2018,49.26587929,-123.1385905,809.0,809.0,809.0
810,100050030,Ernst-Walz-Brücke West - alt,6/1/2014,49.41042582,8.676603857,810.0,810.0,810.0
811,100050626,Preikestolen,3/28/2019,58.98906047,6.185671533,811.0,811.0,811.0
812,100050631,RSW Osna Belm,4/29/2019,52.280159999999995,8.05513,812.0,812.0,812.0
813,100050695,2300 EAST,1/1/2001,0.0,0.0,813.0,813.0,813.0
814,100050750,Kurfürstenanlage Querschnitt,1/1/2016,49.40648754,8.688466278,814.0,814.0,814.0
815,100050813,Josef-Murr-Weg,4/24/2019,47.21598,9.55113,815.0,815.0,815.0
816,100051614,Radschnellweg Landkreis Böblingen,6/1/2019,48.711602,9.081401,816.0,816.0,816.0
817,100051930,Rambla del Celler,5/22/2019,41.47103793,2.084553816,817.0,817.0,817.0
818,100051931,Camí de Can Gatxet,5/22/2019,41.46866638,2.069334984,818.0,818.0,818.0
819,100052416,Preikestolen,2/24/2019,58.98906047,6.185671533,819.0,819.0,819.0
820,100052421,Bradlaugh Fields,1/8/2019,52.26031629999999,-0.87002883,820.0,820.0,820.0
821,100052516,Caswell Road  A508 Kingsthorpe - TTech Totem ,4/24/2017,52.21928116,-0.872794084,821.0,821.0,821.0
822,100052519,A508 Kingsthorpe - TTech Totem,10/1/2018,52.26244661,-0.8998324990000001,822.0,822.0,822.0
823,100052520,A428 Bedford Road - TTech Totem,10/1/2018,52.23273574,-0.883064925,823.0,823.0,823.0
824,100052521,Mare Fair - TTech Totem,1/8/2019,52.23684217,-0.904266695,824.0,824.0,824.0
825,100052521,Mare Fair - TTech Totem,1/8/2019,52.23684217,-0.904266695,825.0,825.0,825.0
826,100053451,Broadway & Promenade - Eco-Display Classic,6/5/2019,33.76911867,-118.1908664,826.0,826.0,826.0
827,100053565,Sarbinowo,7/23/2019,54.24560785,15.928019699999998,827.0,827.0,827.0
828,100053586,Oberbaumbrücke NEW,1/1/2016,52.50177512,13.44568888,828.0,828.0,828.0
829,100054158,Radschnellweg Böblingen/Sindelfingen – Stuttgart,5/30/2019,48.7116,9.0814,829.0,829.0,829.0
830,100054198,Radschnellweg Böblingen/Sindelfingen – Stuttgart,5/30/2019,48.7116,9.0814,830.0,830.0,830.0
831,100054198,Radschnellweg Böblingen/Sindelfingen – Stuttgart,5/30/2019,48.7116,9.0814,831.0,831.0,831.0
832,100115391,Argyle Street,7/1/2013,44.645866,-63.573969999999996,832.0,832.0,832.0
833,100115393,North Barrington Street,11/18/2013,44.64771,-63.57428,833.0,833.0,833.0
834,100115395,South Barrington,12/17/2013,44.641684999999995,-63.571087,834.0,834.0,834.0
835,100117676,Helsehuset,5/9/2013,61.134438,10.440134,835.0,835.0,835.0
836,100117677,Barometer Stationen,6/4/2013,55.87882388,12.85633634,836.0,836.0,836.0
837,100117678,Aarhus,5/28/2013,56.192417000000006,10.185221,837.0,837.0,837.0
838,100117679,Portage Bridge Totem,4/22/2013,45.420258000000004,-75.71219,838.0,838.0,838.0
839,100117680,Totem 01,11/1/2015,49.406723,8.694239999999999,839.0,839.0,839.0
840,100117681,EB Market Totem,2/28/2013,37.776913,-122.41691999999999,840.0,840.0,840.0
841,100117682,New counter 02,1/1/1900,0.0,0.0,841.0,841.0,841.0
842,100117683,Spokane St. Bridge Total,11/24/2013,47.57132761,-122.3493994,842.0,842.0,842.0
843,100117684,Cykelbarometer,6/12/2013,56.688667,16.322333999999998,843.0,843.0,843.0
844,100117685,Schweizerhofquai Totem (604),9/12/2011,47.05418,8.310838,844.0,844.0,844.0
845,100117686,Strathmore Totem,10/18/2013,34.06864,-118.44598,845.0,845.0,845.0
846,100117687,Berliner Platz,7/18/2013,47.6197,7.65932,846.0,846.0,846.0
847,100117688,Eco-Totem _ 1,7/5/2013,69.96548,23.261233999999998,847.0,847.0,847.0
848,100117689,Eco-Totem _ 2,11/19/2013,69.96786999999999,23.369286,848.0,848.0,848.0
849,100117690,Jessheim,12/6/2013,60.143917,11.169752,849.0,849.0,849.0
850,100117691,Lillestrøm,12/16/2013,59.95491,11.039864999999999,850.0,850.0,850.0
851,100117692,Tåsen,11/5/2013,59.9532,10.757,851.0,851.0,851.0
852,100117693,Alvim,2/17/2014,59.274498,11.082512,852.0,852.0,852.0
853,100117694,Jarmyrveien,10/8/2013,59.923823999999996,10.611697,853.0,853.0,853.0
854,100117695,Kolbotn,12/11/2013,59.808533,10.80595,854.0,854.0,854.0
855,100117696,Helsfyr,11/4/2013,59.91367654,10.80230483,855.0,855.0,855.0
856,100117697,Borregårdsbakken,2/11/2014,59.279984,11.125977,856.0,856.0,856.0
857,100117698,Eco-Totem,9/10/2013,51.105309999999996,-115.36724,857.0,857.0,857.0
858,100117699,UiT,5/19/2014,69.67943000000001,18.971754,858.0,858.0,858.0
859,100117700,Jaklins Plass,5/19/2014,69.65265,18.960064000000006,859.0,859.0,859.0
860,100117701,Contador Ciclista Reforma 222 - Ciudad de México,11/16/2013,19.429134,-99.162094,860.0,860.0,860.0
861,100117702,Nygaardsgate,10/18/2013,59.211754000000006,10.938824,861.0,861.0,861.0
862,100117703,Totem ,10/24/2013,48.57406104,7.755221893,862.0,862.0,862.0
863,100117704,Speed counter,11/19/2013,49.13965200000001,9.214609,863.0,863.0,863.0
864,100117705,Totem_Laurier,2/12/2013,45.5277722,-73.58883237,864.0,864.0,864.0
865,100117706,Ernst-Walz-Brücke,6/1/2014,49.40911,8.6766615,865.0,865.0,865.0
866,100117707,Barometer Kirchheim u. Teck,4/17/2014,48.64519,9.451566999999999,866.0,866.0,866.0
867,100117708,Eco Totem,3/3/2014,59.370926000000004,17.962162,867.0,867.0,867.0
868,100117709,Barometer Resecentrum,11/10/2014,59.85758337,17.64600223,868.0,868.0,868.0
869,100117710,Hamarvegen,8/22/2014,61.106728000000004,10.47285,869.0,869.0,869.0
870,100117711,Barometer Kasernplan,6/4/2013,55.87140112,12.82958131,870.0,870.0,870.0
871,100117712,Eco-Totem 01,10/15/2014,47.266834,11.40494,871.0,871.0,871.0
872,100117713,Wiborg atrium,12/1/2014,59.22405,10.952996,872.0,872.0,872.0
873,100117714,Burrard/Cornwall (totem cabinet),6/3/2014,49.272476,-123.145454,873.0,873.0,873.0
874,100117715,Ringvegen,11/3/2014,60.784209999999995,10.692967,874.0,874.0,874.0
875,100117716,Zelt 02,1/1/1900,0.0,0.0,875.0,875.0,875.0
876,100117717,Eco-Totem - SW Path @ Monroe St,10/9/2014,43.067913,-89.41238,876.0,876.0,876.0
877,100117718,Grange Road Totem,9/26/2014,53.286530000000006,-6.2775555,877.0,877.0,877.0
878,100117719,Ansermet Totem,7/8/2014,46.193607,6.1398220000000014,878.0,878.0,878.0
879,100117720,Am Strande,10/1/2012,54.09152283,12.14942155,879.0,879.0,879.0
880,100117721,Bjeredsparken ,9/14/2014,55.708780000000004,13.18425,880.0,880.0,880.0
881,100117722,Sölvegatan,11/11/2014,55.710903,13.202863,881.0,881.0,881.0
882,100117723,Venezia dir centro,2/20/2013,45.473816,9.2043085,882.0,882.0,882.0
883,100117724,Venezia dir Oberdan,2/17/2013,45.473984,9.204523,883.0,883.0,883.0
884,100117725,Eco-Totem 13th at Walnut,7/25/2014,40.01719387,-105.2783267,884.0,884.0,884.0
885,100117726,Bikeometer,3/19/2014,38.89910871,-77.07109065,885.0,885.0,885.0
886,100117727,Asker,11/26/2013,59.83363000000001,10.43706,886.0,886.0,886.0
887,100117728,Mannesmann Ufer-Totem 01,11/1/2014,51.220154,6.7671213,887.0,887.0,887.0
888,100117729,Totem 01,12/15/2014,-34.583453999999996,-58.39204,888.0,888.0,888.0
889,100117730,Galloping Goose Trail - Eco-Totem,12/17/2014,48.432613,-123.3782,889.0,889.0,889.0
890,100117731,Chauss�e de la Madeleine 880 - 881,9/3/2013,47.21172,-1.5529,890.0,890.0,890.0
891,100117732,Wonka_Totem,9/26/2013,50.040184,15.768374,891.0,891.0,891.0
892,100125419,Commerce Square,12/23/2010,47.21405,-1.55803,892.0,892.0,911.0
893,100126835,Angers,8/19/2008,47.632771999999996,2.738833,893.0,893.0,912.0
894,100127652,Birkenlund - Engehaven (Arendal kommune),1/1/2019,58.488552,8.7886715,894.0,894.0,913.0
895,100127783,Calgary (CA),6/29/2015,51.044643,-114.07390600000001,895.0,895.0,914.0
896,100128044,River Walk,10/15/2015,51.050171399999996,-114.05415009999999,896.0,896.0,915.0
897,100128045,Nose Creek at Bow River,10/16/2015,51.04688668,-114.01986070000001,897.0,897.0,916.0
898,100128046,Memorial Drive at Prince s Island,10/16/2015,51.05694245,-114.0664882,898.0,898.0,917.0
899,100128047,Memorial Drive at 19 St NW,10/15/2015,51.04897085,-114.1046078,899.0,899.0,918.0
900,100128048,Lindsay Park,10/15/2015,51.03300328,-114.06435320000001,900.0,900.0,919.0
901,100128053,Bilbao (ES),11/8/2015,43.26413,-2.9240992,901.0,901.0,920.0
902,100128055,Calgary_3 (CA),4/23/2015,51.04198,-114.08213,902.0,902.0,921.0
903,100128056,Barcelona (ES),5/16/2011,41.39436,2.1759484000000002,903.0,903.0,922.0
904,100129897,Butler Trail,2/17/2016,30.27475183,-97.77071379,904.0,904.0,923.0
905,100130631,Asker - sentrum,11/26/2013,59.83363000000001,10.43706,905.0,905.0,893.0
906,100130632,Veitveit,9/24/2013,59.9457,10.8452,906.0,906.0,894.0
907,100130633,Helsfyr,11/4/2013,59.91367654,10.80230483,907.0,907.0,895.0
908,100130634,Mosseveien Oslo,10/4/2013,59.8845,10.7691,908.0,908.0,896.0
909,100130687,Tåsen,11/5/2013,59.9532,10.757,909.0,909.0,897.0
910,100130769,Calgary_2 (CA),7/10/2015,51.045746,-114.07066999999999,910.0,910.0,898.0
911,100130795,Mexico_2 (MX),6/15/2016,19.406767000000002,-99.17844000000001,911.0,911.0,899.0
912,100130920,B90004 Boulder,3/8/2010,40.06877167,-105.2831325,912.0,912.0,900.0
913,100130922,B90023_US 36 Westminster,11/7/2013,39.867813,-105.05895,913.0,913.0,901.0
914,100130961,B90024_US 36 Broomfield,2/3/2014,39.902027000000004,-105.08236000000001,914.0,914.0,902.0
915,100131784,Mexico_3 (MX),6/15/2016,19.401382,-99.18488,915.0,915.0,903.0
916,100133221,90029 US 36 Boulder,7/26/2015,39.98334000000001,-105.22938,916.0,916.0,904.0
917,100133755,Espoonlahti,6/3/2016,60.17491800000001,24.79997216,917.0,917.0,905.0
918,100133931,VW Lannion U-ZELT HD,8/6/2015,48.750861,-3.459971,918.0,918.0,906.0
919,100134303,Nose Hill Park - Retired,10/17/2016,51.11872533,-114.12700520000001,919.0,919.0,907.0
920,100134304,South Glenmore,10/13/2016,50.97577494,-114.09949509999998,920.0,920.0,908.0
921,100134305,Parkdale,10/13/2016,51.05547003,-114.1308413,921.0,921.0,909.0
922,100134306,North Glenmore,10/13/2016,50.98707432,-114.1254047,922.0,922.0,910.0
923,100136236,ZBT Arsenal (615),12/13/2016,47.03814058,8.299547643,923.0,923.0,0.0
924,100136319,ZBT Kleinmatt (614),12/13/2016,47.04077957,8.306729119,924.0,924.0,0.0
925,100137034,Pablo Neruda con Olimpia,7/26/2016,-38.73991455,-72.62299490000002,925.0,925.0,0.0
926,100137035,Presidente Ibañez 2,1/27/2017,-41.45724000000001,-72.91809,926.0,926.0,0.0
927,100137036,Presidente Ibañez 1,1/27/2017,-41.46298978,-72.92921134,927.0,927.0,0.0
928,100137037,Av. Norte Sur 2,11/21/2016,-41.40222,-72.9017,928.0,928.0,0.0
929,100137038,Av. Norte Sur,11/22/2016,-41.38462,-72.90844,929.0,929.0,0.0
930,100137039,Gabriela Mistral con Andes,8/22/2016,-38.72913,-72.62009,930.0,930.0,0.0
931,100137040,Gabriela Mistral con Recreo.,8/23/2016,-38.728429999999996,-72.61454,931.0,931.0,0.0
932,100137041,Hochstetter con Pucon,7/27/2016,-38.72965,-72.61093000000002,932.0,932.0,0.0
933,100137042,Hochstetter con B. O´Higgins ,7/27/2016,-38.73938,-72.61802,933.0,933.0,0.0
934,100137043,Pablo Neruda con J. Carrera ,7/26/2016,-38.73847,-72.62889,934.0,934.0,0.0
935,100137045,O´Higgins frente a Tottus (Sur),11/18/2016,-33.65681702,-70.91100697,935.0,935.0,0.0
936,100137046,O´Higgins frente a Tottus (Norte),11/18/2016,-33.65697884,-70.91102346,936.0,936.0,0.0
937,100137047,Manuel Rodríguez con Errázuriz,11/16/2016,-33.72906149,-70.73964519,937.0,937.0,0.0
938,100137048,V. Zorrillas con Av. Islon,10/24/2016,-29.8895,-71.23278,938.0,938.0,0.0
939,100137049,G. Marin con Monjitas,10/25/2016,-29.88047000000001,-71.24571999999998,939.0,939.0,0.0
940,100137050,Av. Peru con Viña del Mar,10/25/2016,-29.87275,-71.23606,940.0,940.0,0.0
941,100137051,Perez Zujovic Norte,4/27/2015,-23.595979999999997,-70.39641,941.0,941.0,0.0
942,100137114,O´Higgins entre Topacio y J. Brancoli,11/18/2016,-33.67007271,-70.94049413,942.0,942.0,0.0
943,100137115,Rocca con Azolas,10/21/2016,-18.464170000000006,-70.29175,943.0,943.0,0.0
944,100137116,Rocca con Santa Maria,10/21/2016,-18.46112,-70.29566,944.0,944.0,0.0
945,100137117,Neghme con Santa Maria,10/21/2016,-18.4378,-70.29484000000001,945.0,945.0,0.0
946,100137118,Neghme con Linderos,10/21/2016,-18.438779999999998,-70.28707,946.0,946.0,0.0
947,100137119,Santa Maria con Diego Portales,8/24/2016,-18.46944,-70.30351,947.0,947.0,0.0
948,100137120,Santa María con Rocca,8/25/2016,-18.461170000000006,-70.29623000000001,948.0,948.0,0.0
949,100137121,Arata con Neghme ,3/22/2016,-18.4382,-70.29500999999999,949.0,949.0,0.0
950,100137481,Vilamoura_1 (PT),4/13/2017,37.0828052,-8.117742945,950.0,950.0,0.0
951,100137482,Vilamoura_2 (PT),4/13/2017,37.0774987,-8.116660011,951.0,951.0,0.0
952,100137787,Pasaje 19 entre calle 5 y O. Pacifio,12/14/2016,-36.80437,-73.10034,952.0,952.0,0.0
953,100137788,Desiderio G. Con C. Dittborn ,1/5/2017,-36.744709,-73.10043503,953.0,953.0,0.0
954,100137789,Lynch,3/15/2017,-37.47699,-72.34948,954.0,954.0,0.0
955,100137791,Manuel Rodriguez,3/17/2017,-36.81453,-73.04964,955.0,955.0,0.0
956,100138344,Inglewood Bird Sanctuary,5/11/2017,51.02954087,-114.01121090000002,956.0,956.0,0.0
957,100138638,River Walk,10/16/2015,51.05029238,-114.0546155,957.0,957.0,0.0
958,100139170,El Palomar frente a Santa Isabel,2/23/2017,-27.37937,-70.33159,958.0,958.0,0.0
959,100139171,El Palomar con Luis Flores,2/23/2017,-27.38672,-70.32711,959.0,959.0,0.0
960,100139172,O´Higgins,5/4/2017,-36.82626883,-73.04643958,960.0,960.0,0.0
961,100139173,Alto Horno,5/31/2017,-36.7446755,-73.10579331,961.0,961.0,0.0
962,100139581,Colipi 1,7/19/2017,-27.369090000000003,-70.33398000000001,962.0,962.0,0.0
963,100139582,Colipi 2,7/18/2017,-27.366220000000002,-70.33119,963.0,963.0,0.0
964,100139583,Colipi 3,7/19/2017,-27.36216,-70.32688,964.0,964.0,0.0
965,100139584,Chacabuco 3,7/20/2017,-27.36114441,-70.32811527,965.0,965.0,0.0
966,100139585,Chacabuco 2,7/20/2017,-27.365159999999996,-70.33171,966.0,966.0,0.0
967,100139586,Chacabuco 1,7/22/2017,-27.36881191,-70.33537543,967.0,967.0,0.0
968,100139981,Mopac at Barton Cr,8/16/2017,30.24305,-97.81009,968.0,968.0,0.0
969,100140222,Los Chiflones,7/10/2017,-36.9997,-73.16128,969.0,969.0,0.0
970,100140223,Los Robles con Los Notros,7/11/2017,-36.98585,-73.16257,970.0,970.0,0.0
971,100141793,Portage Bridge Totem,4/22/2013,45.420258000000004,-75.71219,971.0,971.0,0.0
972,100142221,Costanera con Kuzma Slavic ,11/23/2017,-53.1427389,-70.87807562,972.0,972.0,0.0
973,100142222,Costanera Manuel Bulnes,11/23/2017,-53.12879,-70.86629,973.0,973.0,0.0
974,100142223,Costanera Club Hipico,11/23/2017,-53.15201938,-70.8851704,974.0,974.0,0.0
975,100142550,Ongolmo con Barros Arana ,12/5/2017,-36.82398,-73.04347,975.0,975.0,0.0
976,100142551,Las Hortensias,12/5/2017,-36.75639,-73.09210999999998,976.0,976.0,0.0
977,100142552,Roosevelt ,12/11/2017,-36.81987,-73.03554,977.0,977.0,0.0
978,100142926,Alonso de Ercilla con Frei Bonn,11/3/2017,-22.451629999999998,-68.93871,978.0,978.0,0.0
979,100142927,Tocopilla Aldunate,10/26/2017,-22.45842,-68.93913,979.0,979.0,0.0
980,100142928,Mexico con Arturo Prat,11/3/2017,-22.44389,-68.93111999999999,980.0,980.0,0.0
981,100142929,Mexico con Tocopilla,10/26/2017,-22.455679999999997,-68.93301,981.0,981.0,0.0
982,100142930,Argentina con Vasco de Gama,10/26/2017,-22.45516823,-68.92985009,982.0,982.0,0.0
983,100142931,Argentina con Arturo Prat,10/26/2017,-22.44531,-68.9282,983.0,983.0,0.0
984,100142932,Alonso de Ercilla con Calle Concepción,12/21/2017,-22.453094,-68.926907,984.0,984.0,0.0
985,100142933,Vasco de Gama con Frei Bonn,12/21/2017,-22.455,-68.939,985.0,985.0,0.0
986,100142934,Vasco de Gama con Argentina,1/9/2018,-22.454539999999998,-68.92958,986.0,986.0,0.0
987,100142935,X2H17123956,1/10/2018,0.0,0.0,987.0,987.0,0.0
988,100143814,10 Oriente con 14 Sur,1/17/2018,-35.44539643,-71.65446966,988.0,988.0,0.0
989,100143815,18 Oriente con 6 Sur,1/31/2018,-35.43572019,-71.64322166,989.0,989.0,0.0
990,100143816,18 Oriente con 2 Norte,1/31/2018,-35.42797,-71.64005999999998,990.0,990.0,0.0
991,100143886,Aldunate con J. A. Rios,1/10/2018,-22.45984831,-68.93875731,991.0,991.0,0.0
992,100143887,Vasco de Gama con Argentina,1/10/2018,-22.454539999999998,-68.92958,992.0,992.0,0.0
993,100143888,Los Confines con Colima,12/14/2017,-37.793851399999994,-72.69539039,993.0,993.0,0.0
994,100144043,Gral. Oscar Bonilla P. Graneros,2/21/2018,-37.80110331,-72.68679567,994.0,994.0,0.0
995,100144044,Rancagua con Ocalindo,2/22/2018,-37.81218042,-72.69999545,995.0,995.0,0.0
996,100144045,Antofagasta con Ocalind,2/21/2018,-37.813520000000004,-72.69546,996.0,996.0,0.0
997,100144361,Kaukari Sur,3/21/2018,-27.370929999999998,-70.33659,997.0,997.0,0.0
998,100144362,Kaukari Norte,3/22/2018,-27.370279999999998,-70.33555,998.0,998.0,0.0
999,100145944,Javiera Carrera con Simon Bolivar,5/30/2018,-38.749309999999994,-72.63667,999.0,999.0,0.0
1000,100147259,Rio Maule,9/28/2017,-36.75809,-73.09506,1000.0,1000.0,0.0
1001,100147371,Argyle Street - Loaner,8/8/2018,0.0,0.0,1001.0,1001.0,0.0
1002,100148013,Prague (CZ),9/14/2018,50.05949687,14.41919219,1002.0,1002.0,0.0
1003,100148967,Regimiento ,6/13/2018,-41.46663,-72.90481,1003.0,1003.0,0.0
1004,100149521,Manuel Antonio Matta 1,9/23/2016,-23.65265,-70.39954,1004.0,1004.0,0.0
1005,100149522,Grecia con Diaz Gana,4/5/2018,-23.66408,-70.40385,1005.0,1005.0,0.0
1006,100149523,Av Costanera 5538,12/4/2018,-29.94460815,-71.29023343,1006.0,1006.0,0.0
1007,100149524,Av del Mar sector Faro,12/4/2018,-29.90943,-71.27452,1007.0,1007.0,0.0
1008,100149525,G. Gonzales con Huanhualí,12/5/2018,-29.916729999999998,-71.2475,1008.0,1008.0,0.0
1009,100149526,J. Cisternas con San Joaquin ,12/5/2018,-29.91746,-71.24475,1009.0,1009.0,0.0
1010,100149527,J. Cisternas con Cerro Alegre,12/5/2018,-29.949740000000002,-71.26214,1010.0,1010.0,0.0
1011,100149528,Salvador Allende con Regimiento Arica,12/5/2018,-29.9557,-71.26505999999998,1011.0,1011.0,0.0
1012,100149529,G. Gonzales con Cuatro Esquinas  ,12/5/2018,-29.934759999999997,-71.25491,1012.0,1012.0,0.0
1013,100149902,NUEVA IMPERIAL,12/4/2015,-36.80049,-73.084236,1013.0,1013.0,0.0
1014,100150031,Heidelberg Ernst-Walz-Brücke Querschnitt,2018-11-11,49.409534026017035,8.676711154365599,1014.0,0.0,
1015,100150061,Nahuelbuta,2019-01-15,-38.71787,-72.5575,1015.0,0.0,
1016,100150062,Pasaje Padre Anselmo,2019-01-08,-38.76998928939655,-72.58522379063577,1016.0,0.0,
1017,100150063,Av. Huichahue,2019-01-08,-38.77423509841897,-72.58417396301516,1017.0,0.0,
1018,100150064,Coñoepan,2019-01-08,-38.76716,-72.5995,1018.0,0.0,
1019,100150065,Las Bandurrias,2019-01-08,-38.7767,-72.59295999999998,1019.0,0.0,
1020,100150505,Av. del Mar con Cuatro Esquinas,2019-02-12,-29.92604959919484,-71.27846940420369,1020.0,0.0,
1021,100151433,Ocalindo 1015,2019-01-30,-37.81325777771971,-72.6976976340085,1021.0,0.0,
1022,100152481,Arturo Prat esquina A. Bello,2019-05-15,-38.74164314273105,-72.59121945107172,1022.0,0.0,
1023,100152482,Balmaceda esquina Prieto Nte.,2019-05-15,-38.73166,-72.59865,1023.0,0.0,
1024,100152483,Francisco S. frente a Pablo VI,2019-05-15,-38.74824133999576,-72.61288372394509,1024.0,0.0,
1025,100153371,Kaukari con Henriquez,2019-06-11,-27.37383,-70.3317,1025.0,0.0,
1026,100154114,Cabello,2017-03-22,-34.634472739709246,-71.37013713306592,1026.0,0.0,
1027,100154116,Alameda,2017-05-25,-34.16398,-70.74973,1027.0,0.0,
