,Unnamed: 0,CounterID,CounterTitle,Date,Lat,Long,Gap
0,0,100000445,Sabrina Footbridge - Cycle,1/1/2011,52.1945,-2.2316263,0
1,1,100000446,Sabrina Footbridge - Pedestrian,1/1/2011,52.19431305,-2.232009172,1
2,2,100000447,Diglis FootBridge - Pedestrian,1/1/2011,52.1764,-2.2243762,1
3,3,100000448,Diglis FootBridge - Cycle,1/1/2011,52.177166,-2.2245512,1
4,4,100000518,NCC Eastern Canal Pathway Colonel By,1/25/2010,45.42137146,-75.68595886,70
5,5,100000519,NCC Ottawa River Pathway at Prince of Wales Bridge,3/1/2010,45.41200256,-75.72299194,1
6,6,100000986,Langensandbrücke,1/1/2012,47.045435,8.309292,467
7,7,100000987,Taubenhaus,1/1/2012,47.04256,8.302307,1
8,8,100001188,Automatische Velozählstellen in Winterthur – Frohbergstrasse,4/30/2011,47.49723,8.726243,201
9,9,100001273,Rantaraitti (Pötkä),11/13/2017,62.61425,29.72472,85
10,10,100001393,Barcelona - Plaça de Tetuan,5/16/2011,41.39436,2.1759484,120
11,11,100001678,Bike Counter Data – Laurier at Metcalfe – Eastbound + Westbound,7/10/2011,45.41985,-75.696075,285
12,12,100001753,Notre-Dame,10/17/2013,45.530216,-73.544426,75
13,13,100001783,Laurier at Lyon,7/9/2011,45.4170128,-75.7031297,30
14,14,100002022,Le Mont-Saint-Michel,7/27/2011,48.63501,-1.5107716,239
15,15,100002415,Bike Counter Data Fell at Scott Westbound ,2/10/2009,37.7742,-122.436295,393
16,16,100002880,Pont_Jacques_Cartier,11/15/2011,45.52550826,-73.55442203,465
17,17,100002884,Somerset Bridge at O-Train Trillium Line,11/18/2011,45.407295,-75.71799,4
18,18,100002963,Al. Zwycięstwa,9/15/2013,54.3712,18.62702,79
19,19,100002965,Molo,11/15/2013,54.413692,18.623043,2
20,20,100002969,GR62-66 Le Devois,6/9/2010,44.127033,3.4418347,4
21,21,100003032,Berri1,1/13/2008,45.516216,-73.56297,63
22,22,100003034,Rachel / Papineau,9/29/2010,45.53044783,-73.56954036,2
23,23,100003040,PierDup,10/4/2010,45.50127,-73.54441,6
24,24,100003041,CSC (Côte Sainte-Catherine),10/4/2010,45.5149,-73.607506,1
25,25,100003042,Parc,10/1/2010,45.51385,-73.58151,1
26,26,100003560,San Marcos Inland Rail Trail EB & WB,2/5/2014,33.146637,-117.18356,518
27,27,100003561,Oceanside SLR River Trail EB & WB,3/5/2014,33.203396,-117.38739,1
28,28,100003562,Escondido Inland Rail Trail EB & WB,3/16/2012,33.11982,-117.09081,1
29,29,100003563,Solana Beach Coast Hwy NB & SB,2/4/2014,32.991085,-117.27147,1
30,30,100003564,SR 56 Bike Path EB & WB,2/20/2015,32.95814,-117.15307,1
31,31,100003565,SD Sorrento Valley Rd NB & SB,11/8/2013,32.91754908,-117.2382448,1
32,32,100003566,SD Rose Canyon Bike Path NB & SB,9/5/2014,32.834373,-117.2323,1
33,33,100003567,SD E Mission Bay Dr NB & SB,12/3/2011,32.789646,-117.20898,1
34,34,100003568,SD River Bike Path EB & WB,2/9/2015,32.760265,-117.2022,1
35,35,100003569,Oceanside Pacific St NB & SB,2/4/2014,33.181255,-117.37246,1
36,36,100003570,SD Landis St EB & WB,9/16/2014,32.745487,-117.12107,1
37,37,100003571,SD Harbor Dr Multi-Use Path EB & WB,9/20/2012,32.72797,-117.18266,1
38,38,100003572,SD 30th St NB & SB,12/9/2014,32.741684,-117.13012,1
39,39,100003573,SD Harbor Dr Pedestrian Bridge NB & SB,2/9/2012,32.705284,-117.156685,1
40,40,100003574,Coronado Bayshore Bikeway NB & SB,10/29/2014,32.69119266,-117.1692871,1
41,41,100003575,National City Sweetwater Bike Path EB & WB,9/24/2012,32.657333,-117.070625,1
42,42,100003576,Chula Vista Bayshore Bikeway NB & SB,2/7/2012,32.64903891,-117.1036983,1
43,43,100003578,Imperial Beach Palm Avenue EB & WB,1/6/2014,32.58399,-117.130775,2
44,44,100003579,SD University Ave EB & WB,2/21/2012,32.74829883,-117.1612868,1
45,45,100003580,Vista Village Drive EB - Bike,5/2/2012,33.20328,-117.24201,1
46,46,100003581,Vista Village Drive WB - Bike,5/2/2012,33.203068,-117.24268,1
47,47,100003582,Oceanside Blvd EB - Bike,3/4/2014,33.20258,-117.31333,1
48,48,100003583,Oceanside Blvd WB - Bike,3/4/2014,33.203194,-117.31157,1
49,49,100003584,Del Mar Camino Del Mar SB - Bike,7/14/2014,32.95839,-117.26476,1
50,50,100003585,Del Mar Camino Del Mar - Ped Westside,2/9/2012,32.9585324,-117.264833,1
51,51,100003586,Del Mar Camino Del Mar NB - Bike,2/8/2012,32.95842,-117.26504,1
52,52,100003587,Del Mar Camino Del Mar - Ped Eastside,2/9/2012,32.9586213,-117.2648445,1
53,53,100003588,Del Mar Heights EB - Bike,11/15/2013,32.9554501,-117.2309702,1
54,54,100003589,Del Mar Heights WB - Bike,11/15/2013,32.9553741,-117.2309472,1
55,55,100003590,SD Torrey Pines UCSD NB & SB,1/9/2014,32.87211,-117.243706,1
56,56,100003591,SD Gilman Dr SB - Bike,11/12/2013,32.86976,-117.23822,1
57,57,100003592,SD Gilman Dr NB - Bike,11/12/2013,32.86976,-117.23801,1
58,58,100003593,SD Kearney Villa SB - Bike,11/12/2013,32.75333,-117.20086,1
59,59,100003594,SD Kearney Villa NB - Bike,11/12/2013,32.81429,-117.26983,1
60,60,100003595,SD Torrey Pines EB - Bike,1/8/2014,32.84831,-117.26348,1
61,61,100003596,SD Torrey Pines WB - Bike,1/9/2014,32.85516,-117.2456,1
62,62,100003597,La Mesa University Ave WB - Bike,4/18/2012,32.767517,-117.02041,1
63,63,100003598,La Mesa University Ave EB - Bike,4/18/2012,32.76747,-117.0208,1
64,64,100003599,El Cajon Washington Ave EB - Bike,2/6/2012,32.78757,-116.92934,1
65,65,100003600,El Cajon Washington Ave WB - Bike,2/7/2012,32.787712,-116.930046,1
66,66,100003601,SD Nimitz Blvd SB,9/19/2012,32.743774,-117.23301,1
67,67,100003602,SD Nimitz Blvd NB,9/19/2012,32.743816,-117.2328,1
68,68,100003603,SD Pac Hwy SB - Bike,9/13/2012,32.75331,-117.20073,1
69,69,100003604,SD Pac Hwy NB - Bike,9/13/2012,32.75323,-117.20055,1
70,70,100003605,SD University Ave WB - Bike,9/19/2012,32.748337,-117.15322,1
71,71,100003606,SD University Ave EB - Bike,9/19/2012,32.748566,-117.15258,1
72,72,100003607,SD 4th SB - Bike,12/15/2014,32.72878822,-117.1611013,1
73,73,100003610,SD Broadway EB & WB - Ped Northside,12/10/2014,32.7157206,-117.1595054,3
74,74,100003611,SD Broadway EB & WB - Ped Southside,2/10/2012,32.7156649,-117.159919,1
75,75,100003612,SD La Jolla Blvd NB & SB,9/11/2012,32.81429,-117.26974,1
76,76,100003613,SD 5th NB - Bike,12/15/2014,32.7287399,-117.1603501,1
77,77,100003679,Av Boisse,1/21/2009,45.58142,5.91151,66
78,78,100003680,Av Lyon sens montant,12/31/2009,45.56235,5.9114,1
79,79,100003681,Parc Buisson Rond,2/21/2009,45.56139,5.94013,1
80,80,100003682,Parc Du Verney,6/8/2006,45.56887,5.91904,1
81,81,100003683,Av Lyon sens descendant,12/31/2009,45.56273,5.9081,1
82,82,100003684,VV Leysse,6/8/2006,45.56831,5.93983,1
83,83,100003685,leysse us,6/13/2006,45.568474,5.9401164,1
84,84,100003686,Avenue Verte Nord,8/31/2010,45.58541,5.90442,1
85,85,100003687,Croix de Bissy,8/31/2010,45.58254,5.88672,1
86,86,100003688,Comte Vert Est,3/7/2011,45.57293,5.9082,1
87,87,100003689,Comte Vert Ouest,9/29/2010,45.57297,5.90767,1
88,88,100003690,Berroir Sud,7/14/2012,45.56574,5.93374,1
89,89,100003691,VV Planeurs,9/2/2010,45.55883,5.9826,1
90,90,100003692,Berroir Nord,2/23/2012,45.56562,5.93389,1
91,91,100003832,Escondido Inland Rail Trail EB & WB - Bike,3/16/2012,33.11996,-117.09037,140
92,92,100003842,Del Mar Camino Del Mar - Ped Westside,2/9/2012,0,0,10
93,93,100003845,SD University Ave EB & WB - Ped,2/21/2012,32.748295,-117.16111,3
94,94,100003882,Chula Vista Bayshore Bikeway NB & SB - Bike,2/7/2012,32.64239,-117.101814,37
95,95,100003925,Mill Valley - Sausalito Path South of Sycamore,1/1/2011,37.89539,-122.52589,43
96,96,100004126,VÄSTRA VALLGATAN,4/20/2012,57.108166,12.249027,201
97,97,100004165,Erbprinzenstraße,4/25/2012,49.0072864,8.4027153,39
98,98,100004308,Cathkins Brae,5/30/2012,55.800518,-4.245685,143
99,99,100004534,Bleicherstrasse,11/1/2012,47.04351886,8.30699831,226
100,100,100004535,Löwenplatz,11/1/2012,47.05707,8.310312,1
101,101,100004536,Baselstrasse,11/1/2012,47.05333243,8.29437638,1
102,102,100004538,Inseli,11/1/2012,47.0490463,8.3139376,2
103,103,100004539,Palace,11/1/2012,47.0552811,8.3185976,1
104,104,100004540,Dammstrasse,11/1/2012,47.05264,8.296418,1
105,105,100004575,Brébeuf,7/3/2009,45.527496,-73.57432,35
106,106,100004595,Freiburg Wiwilibrücke - Radfahrende im Querschnitt,5/1/2012,47.995213,7.8407526,20
107,107,100004691,"Kerékpárszámláló  - Budapest  - Andrássy út, a Nagymező utcánál, befelé - REMOVED",7/3/2012,47.50332,19.060497,96
108,108,100004692,"Kerékpárszámláló  - Budapest  - Andrássy út, a Nagymező utcánál, kifelé - REMOVED",7/3/2012,47.503204,19.06038,1
109,109,100004857,Licznik rowerowy -  ul. Pomorska,7/10/2012,54.09558,18.7875,165
110,110,100005014,KÖ Steinstr,8/6/2012,51.22324,6.7791767,157
111,111,100005020,New York City DOT - Manhattan Bridge,9/1/2012,40.69981,-73.98589,6
112,112,100005157,Bike Barometer : Portland Hawthorne Bridge,8/8/2012,45.514072,-122.67374,137
113,113,100005392,Liningweg,1/1/2014,54.10295,12.07408,235
114,114,100005393,Braesigplatz,1/1/2014,54.102818,12.0749855,1
115,115,100005394,Langestr,1/1/2014,54.09034,12.13605,1
116,116,100005395,Am Strande,1/1/2014,54.09152283,12.14942155,1
117,117,100005493,Neustadtstrasse,11/1/2012,47.0441705,8.3089013,98
118,118,100005630,Seattle Fremont Bridge,10/10/2012,47.64811,-122.3499,137
119,119,100005835,Coronado Bayshore Bikeway NB & SB - Bike,10/29/2014,32.6899,-117.169815,205
120,120,100005837,SD Harbor Dr Multi-Use Path EB & WB - Bike,9/20/2012,32.727997,-117.18321,2
121,121,100005838,SD River Bike Path EB & WB - Ped,2/9/2015,32.76027,-117.202156,1
122,122,100005839,San Marcos Inland Rail Trail EB & WB - Bike,2/5/2014,33.146435,-117.18199,1
123,123,100006456,"Tramore Town to Waterford City Bicycle Counter at Pickardstown, Tramore",12/12/2012,52.179386,-7.1361785,617
124,124,100006825,Test GMAL,1/1/2013,0,0,369
125,125,100006920,PYRO-Box 1,8/18/2014,38.852734,-104.93855,95
126,126,100006921,Rock Island Trail,7/25/2013,38.85895,-104.77684,1
127,127,100006922,Urban Post 2,12/29/2012,38.82266,-104.83791,1
128,128,100006923,Templeton Gap,8/22/2013,38.88533,-104.80631,1
129,129,100007068,Charlottenlund,2/21/2013,69.665855,18.946383,145
130,130,100007069,Huon,5/4/2013,56.667854,16.349333,1
131,131,100007108,Sandtangen,4/8/2013,58.736355,5.651372,39
132,132,100007363,Storgata nord,6/4/2013,61.117523,10.464487,255
133,133,100007381,Langvannet,2/13/2013,69.68824,18.986538,18
134,134,100007390,Ville de Montréal - Métro Laurier,2/14/2013,45.5277722,-73.58883237,9
135,135,100007395,Stavsjøen,11/26/2015,63.39806,10.739717,5
136,136,100007698,Ottawa - Portage Bridge / Pont du Portage - 2014,4/3/2014,45.420258,-75.71219,303
137,137,100007834,Bike Counter Data - Market Street Totem (Eastbound),5/9/2013,37.776913,-122.41692,136
138,138,100007875,Avenue Marius Berroir,9/1/2010,45.56591,5.9339232,41
139,139,100007876,Avenue Comte Vert,9/1/2010,45.573013,5.907804,1
140,140,100007882,Avenue de Lyon,1/20/2009,45.56214351,5.911499945,6
141,141,100008160,Trillium Bayview,5/6/2013,45.410313,-75.72383,278
142,142,100008205,Helsehuset,5/9/2013,61.134438,10.440134,45
143,143,100008473,Trillium Gladstone,5/6/2013,45.40487,-75.71523,268
144,144,100008521,Colorado Springs - Manitou Incline,7/20/2013,38.856888,-104.93223,48
145,145,100008522,Pikes peak Greenway @ CC,4/25/2014,38.91164,-104.857765,1
146,146,100008546,Kaisaniemi,6/8/2013,60.178238,24.940506,24
147,147,100008715,UCLA Strathmore Bike Counter,11/21/2013,34.06864,-118.44598,169
148,148,100008731,Kalmar,6/13/2013,56.688667,16.322334,16
149,149,100008768,Seattle Spokane Street,11/24/2013,47.57132761,-122.3493994,37
150,150,100008914,Schweizerhofquai,1/1/2012,47.05418,8.310838,146
151,151,100008928,Sydspissen|,8/4/2015,69.62948,18.91175,14
152,152,100008931,Grenseveien gang og sykkelbro,1/14/2016,59.9204,10.79475,3
153,153,100008932,Akerselva ved Vøyenbrua,9/3/2014,59.93213,10.758295,1
154,154,100009153,Skurubron på Sicklaön,9/5/2013,59.313644,18.21258,221
155,155,100009154,Sicklavägen på Sicklön,9/5/2013,59.307236,18.113676,1
156,156,100009814,Rocky Mountain Legacy Trail - Canmore Trailhead,8/5/2010,51.134235,-115.40755,660
157,157,100009915,UiT,5/19/2014,69.67943,18.971754,101
158,158,100009916,Jaklins Plass,5/19/2014,69.65265,18.960064,1
159,159,100009928,Contador Ciclista Reforma 222 - Ciudad de México,11/16/2013,19.429134,-99.162094,12
160,160,100009931,Moreland Totem Bike Counter,10/15/2013,-37.77995,144.97733,3
161,161,100010066,Rocky Mountain Legacy Trail – Canmore Trailhead,8/6/2010,51.105335,-115.3673,135
162,162,100010113,Mosseveien,10/25/2013,59.216606,10.92417,47
163,163,100010223,North Barrington Street,11/19/2013,44.64771,-63.57428,110
164,164,100010264,Borregårdsbakken,2/11/2014,59.279984,11.125977,41
165,165,100010265,Alvim,2/1/2014,59.274498,11.082512,1
166,166,100010268,Tåsen,11/5/2013,59.9532,10.757,3
167,167,100010269,Helsfyr,11/1/2013,59.91367654,10.80230483,1
168,168,100010270,Jessheim sentrum,12/6/2013,60.143917,11.169752,1
169,169,100010271,Skedsmo Rådhus,12/16/2013,59.95491,11.039865,1
170,170,100010272,Asker stasjon,11/18/2013,59.83363,10.43706,1
171,171,100010273,Skiveien Kolbotn,12/11/2013,59.808533,10.80595,1
172,172,100010274,Jarmyra,10/8/2013,59.923824,10.611697,1
173,173,100010337,Ooppera,10/25/2013,60.18197,24.93145,63
174,174,100010638,MIGUEL CLARO,7/28/2015,-33.439743,-70.61783,301
175,175,100010640,ANTONIO VARAS,3/29/2015,-33.440807,-70.61324,2
176,176,100010641,MARIN,3/29/2015,-33.444214,-70.62786,1
177,177,100010642,RICARDO LYON,3/29/2015,-33.427055,-70.6079,1
178,178,100010646,ANDRES BELLO,3/29/2015,-33.424118,-70.62054,4
179,179,100010651,Transcona Trail,10/11/2013,49.903347,-97.023636,5
180,180,100010652,Bishop Grandin 2,10/14/2013,49.8277,-97.12732,1
181,181,100010653,Yellow Ribbon Greenway,10/15/2013,49.88936,-97.25276,1
182,182,100010654,BG01Zelt,10/15/2013,49.820908,-97.14479,1
183,183,100010655,Northeast Pioneer 2,10/9/2013,49.92504,-97.07647,1
184,184,100010656,Northeast Pioneer 3,10/8/2013,49.93722,-97.06102,1
185,185,100010657,Northeast Pioneer 1,10/9/2013,49.914238,-97.0902,1
186,186,100010658,BG03Zelt,10/14/2013,49.83904,-97.08915,1
187,187,100010659,Harte Trail 2,10/16/2013,49.84438,-97.25629,1
188,188,100010660,Harte Trail 1,10/16/2013,49.846264,-97.29439,1
189,189,100011008,Murchie's,11/22/2013,48.424946,-123.36785,348
190,190,100011009,Market Square,11/22/2013,48.427856,-123.36888,1
191,191,100011010,TD,11/21/2013,48.424362,-123.36569,1
192,192,100011422,Hemlock,11/13/2013,45.44655456,-75.66911306,412
193,193,100011427,Sherbourne SB at Gerrard,12/9/2012,43.66185,-79.372635,5
194,194,100011428,Sherbourne NB at Gerrard,12/3/2012,43.66707,-79.37466,1
195,195,100011429,Sherbourne NB at Wellesley,12/3/2012,43.66769,-79.37482,1
196,196,100011605,Mühlendamm-Flußbad,1/1/2014,54.083782,12.153115,176
197,197,100011619,WS,9/15/2013,54.3971,18.569721,14
198,198,100011631,Kirchfeldstraße,12/11/2013,51.21246,6.7707596,12
199,199,100011632,Lohauser Deich,12/9/2013,51.2767,6.71411,1
200,200,100011637,Christophstr.,12/18/2014,51.196228,6.79654,5
201,201,100011747,Saint-Antoine,10/22/2013,45.50625,-73.557785,110
202,202,100011748,René-Lévesque,10/29/2013,45.516968,-73.55404,1
203,203,100011749,Viger,10/30/2013,45.505943,-73.56027,1
204,204,100011783,Maisonneuve_3,11/2/2013,45.470493,-73.609566,34
205,205,100011851,Veitvet,9/24/2013,59.9457,10.8452,68
206,206,100011852,Mosseveien,10/4/2013,59.8845,10.7691,1
207,207,100011853,Nygaardsgata,9/22/2013,59.211754,10.938824,1
208,208,100011854,Mosseveien,10/25/2013,59.216606,10.92417,1
209,209,100011934,Spring Garden - South,4/1/2016,44.642586,-63.57839,80
210,210,100011935,Spring Garden - North,1/25/2014,44.643093,-63.577305,1
211,211,100011984,Stoltzekleiven,2/6/2014,60.41202,5.3348384,49
212,212,100011985,Ernst-Walz-Brücke,6/1/2014,49.40911,8.6766615,1
213,213,100012015,South Barrington,12/18/2013,44.641685,-63.571087,30
214,214,100012016,George Street,12/18/2013,44.648937,-63.573128,1
215,215,100012079,Cawston St corridor,4/12/2014,49.89173,-119.48883,63
216,216,100012161,Plöck,11/1/2015,49.40913,8.698543,82
217,217,100012217,Rachel / Hôtel de Ville,10/16/2013,45.519684,-73.58022,56
218,218,100012218,Boyer,11/1/2013,45.53365,-73.59459,1
219,219,100012285,North Upper Water,1/19/2014,44.649654,-63.573208,67
220,220,100012286,South Lower Water,1/20/2014,44.643673,-63.569542,1
221,221,100012340,Bygdetunet,1/23/2017,59.80585338,10.2990891,54
222,222,100012585,Argyle Street,12/3/2013,44.645866,-63.57397,245
223,223,100012608,Gaisbergstraße,11/1/2015,49.406723,8.69424,23
224,224,100012754,Urban Post 01,5/7/2018,48.7573746,-3.4634812,146
225,225,100012756,Urban Post 02,2/4/2014,38.82266928,-104.8384025,2
226,226,100012757,Ute Valley PineCliff,4/24/2014,38.911034,-104.84947,1
227,227,100012758,Ute Valley Main Parking Lot,4/23/2014,38.924854,-104.85724,1
228,228,100012785,Frankton Track,7/1/2014,-45.034714,168.67975,27
229,229,100012787,Multi 01,5/7/2014,38.84797,-104.82859,2
230,230,100012893,Arlington Key Bridge - Bicycle Counts,8/10/2011,0,0,106
231,231,100013031,Hamarvegen,8/22/2014,61.106728,10.47285,138
232,232,100013034,Mannheimer Straße,11/1/2015,49.4118,8.65914,3
233,233,100013099,Ped Bridge 1,5/20/2014,44.64919151,-63.5712473,65
234,234,100013436,Sherbourne SB at  Wellesley,12/3/2012,43.66123,-79.372215,337
235,235,100013460,NCC Alexandra Bridge Cycle Track,6/5/2009,45.429188,-75.70199,24
236,236,100013524,Wiborg atrium,12/1/2014,59.22405,10.952996,64
237,237,100013678,Dovrefjell 1-Grønbakken,6/13/2014,62.26882,9.59703,154
238,238,100013679,Dovrefjell 2 vårstigen,6/13/2014,62.36166,9.64761,1
239,239,100013680,Rennebu-Voll,6/18/2014,62.81606,9.97633,1
240,240,100013681,Eidsvoll,6/1/2015,60.29821,11.18506,1
241,241,100013682,Trondheim-Kastberga,5/9/2014,63.36119,10.30233,1
242,242,100013683,Orkanger-Svorkmo,7/15/2014,63.18604,9.82848,1
243,243,100013684,Hamar- Prøysenskogen,5/27/2014,60.9172,10.84115,1
244,244,100013685,Granavollen- Kittelsrud,5/9/2014,60.49597,10.59812,1
245,245,100013686,Gudbrandsdalen-Øyer,5/28/2014,61.28738,10.40014,1
246,246,100013687,Stiklestad-Munkeby,5/9/2014,63.74973,11.43783,1
247,247,100013732,König-Karls-Brücke,7/1/2012,48.798843,9.209901,45
248,248,100013755,Escondido Inland Rail Trail EB & WB - Ped,2/5/2014,33.1198,-117.090904,23
249,249,100013756,San Marcos Inland Rail Trail EB & WB - Ped,2/4/2014,33.146725,-117.18393,1
250,250,100013757,Oceanside SLR River Trail EB & WB - Ped,3/5/2014,33.20438,-117.38639,1
251,251,100013758,SD River Bike Path EB & WB - Bike,2/9/2015,32.760433,-117.20149,1
252,252,100013759,Coronado Bayshore Bikeway NB & SB - Ped,10/29/2014,32.68912,-117.16978,1
253,253,100013760,SD Harbor Drive Multi-Use Path EB & WB - Ped,1/5/2014,32.72778,-117.18244,1
254,254,100013761,Chula Vista Bayshore Bikeway NB & SB - Ped,2/7/2012,32.641544,-117.10147,1
255,255,100013817,Peace Bridge,4/23/2014,51.05356,-114.07836,56
256,256,100013833,Old Lower Shotover River Track,7/1/2014,-44.99658,168.75781,16
257,257,100013834,Kelvin Peninsula New,7/1/2014,-45.03083,168.70834,1
258,258,100013835,Riverside Road New,7/1/2014,-45.03185,168.7432,1
259,259,100013990,Waterfront Walkway,6/26/2014,49.89629,-119.49989,155
260,260,100013992,City Park Multi,12/1/2013,49.881157,-119.50341,2
261,261,100013994,Bernard Ave south sidewalk,7/18/2014,49.886208,-119.48899,2
262,262,100013995,Bernard Ave north sidewalk,9/14/2013,49.88634215,-119.4887544,1
263,263,100014077,Oceanside SLR River Trail EB & WB - Bike,3/4/2014,33.203285,-117.38744,82
264,264,100014096,Imperial Beach Bayshore Bikeway EB & WB,5/16/2014,32.589554,-117.11067,19
265,265,100014228,Sunset Dr N of Brandts Creek Crosswalk,5/21/2013,49.89666,-119.49852,132
266,266,100014230,Bennett Bridge Walkway,8/26/2013,49.880573,-119.50381,2
267,267,100014231,Abbott St Corridor,5/27/2013,49.87799,-119.49688,1
268,268,100014511,FR2 Güterbahnradweg / Ferdinand-Weiß-Straße - Radfahrende im Querschnitt,8/1/2014,47.998592,7.8220816,280
269,269,100014557,Tverrløypa Nybu,6/8/2015,61.115067,10.48515,46
270,270,100014585,FR1 Dreisamradweg / Hindenburgstraße - Radfahrende im Querschnitt,8/1/2014,47.99054,7.8623013,28
271,271,100014631,Coastal Community,10/9/2014,48.424526,-123.36333,46
272,272,100014632,Friends of Bears,10/10/2014,48.426754,-123.36506,1
273,273,100014633,Monk Office,10/11/2014,48.424416,-123.3625,1
274,274,100014670,Village Gaulois : Combo2,7/4/2014,48.78507632,-3.52609939,37
275,275,100014679,Ylisoutajan silta,7/3/2014,62.59422634,29.75747177,9
276,276,100015128,City of Boulder - 13th at Walnut,8/25/2014,40.01719387,-105.2783267,449
277,277,100015266,Gilhusodden,8/4/2014,59.74693004,10.26713487,138
278,278,100015388,CITIX,9/5/2014,44.648663,-63.570892,122
279,279,100015584,Portsmouth Road,1/1/2001,0,0,196
280,280,100015585,Horsefair,1/1/2001,0,0,1
281,281,100015586,Marsh Lane,1/1/2001,0,0,1
282,282,100015729,Cherry Street,8/25/2014,43.44645,-80.51071,143
283,283,100015778,Morven Ferry Rd Intersection,7/1/2014,-44.992813,168.85516,49
284,284,100015779,Swain Bridge,7/1/2014,-44.96687,168.85442,1
285,285,100015780,Speargrass Flat Road,7/1/2014,-44.960773,168.80653,1
286,286,100015781,Billies Bridge,7/1/2014,-45.0038,168.80299,1
287,287,100016107,Lauttasaarentie,10/15/2014,60.161415,24.893135,326
288,288,100016151,George Street,9/15/2014,44.64887,-63.57333,44
289,289,100016157,Monolittvn ved Frognerparken,11/5/2014,59.92944,10.695102,6
290,290,100016158,Østensjøvn ved Brynseng,10/16/2014,59.9091,10.8146,1
291,291,100016159,Ullevålsvn 19,10/28/2014,59.92075,10.74236,1
292,292,100016160,Maridalsvn nord for Fredensborgvn,10/8/2014,59.92314,10.75075,1
293,293,100016161,Ekebergvn 160,10/29/2014,59.87886,10.78758,1
294,294,100016261,Rocky Mountain,10/11/2014,48.42377,-123.368,100
295,295,100016262,Canada Post,10/11/2014,48.426178,-123.3643,1
296,296,100016421,Moss-Mosskogen,11/26/2014,59.4562,10.67886,159
297,297,100016422,Moss-RyggeTelemarkslund-Ekeby,11/27/2014,59.38752,10.66918,1
298,298,100016424,Mannesmann Ufer-Totem 01,10/19/2014,51.220154,6.7671213,2
299,299,100016667,Aleksanterinkatu,10/30/2014,60.168934,24.94585,243
300,300,100016669,Vanha Ylioppilastalo,10/30/2014,60.16891,24.940344,2
301,301,100016673,Forumin tunneli,10/30/2014,60.169228,24.938232,4
302,302,100016754,"Madison, WI – Eco-Totem on the Southwest Path at Monroe Street",10/6/2014,43.067913,-89.41238,81
303,303,100016786,Chr Michelsens gt nordside,10/13/2014,59.92886,10.77053,32
304,304,100016789,Chr Michelsens gt sydside,10/11/2014,59.92863,10.7702,3
305,305,100016790,Maridalsvn ved Carl Kjelsens vei,10/7/2014,59.9547,10.76124,1
306,306,100016795,St Georges Road,4/16/2015,-37.775917,144.98993,5
307,307,100016888,Capital Crescent Trail #1,11/13/2014,38.9795,-77.09676,93
308,308,100016908,Facultad de Derecho,12/15/2014,-34.583454,-58.39204,20
309,309,100016909,Shoal Creek,10/31/2014,30.308067,-97.74795,1
310,310,100016910,Duval,10/30/2014,30.29499,-97.73214,1
311,311,100016911,Manor,11/1/2014,30.284151,-97.719925,1
312,312,100016912,Guadalupe,2/28/2015,30.28419,-97.74187,1
313,313,100016914,S 1st St,11/1/2014,30.26187,-97.7483,2
314,314,100016915,S 1st St 2,11/1/2014,30.26185,-97.74842,1
315,315,100017105,Leon Creek at Prue Road,11/17/2014,29.541576,-98.63145,190
316,316,100017106,Salado Creek at Blanco Road,11/18/2014,29.563576,-98.51931,1
317,317,100017127,Argyle Street,12/6/2013,44.646038,-63.574127,21
318,318,100017151,Churchill @ Byron,10/20/2014,45.38968877,-75.75237469,24
319,319,100017181,7 Street South Cycle Track,12/11/2014,51.050327,-114.0784,30
320,320,100017341,W'münde Wetterwarte,11/25/2014,54.17664,12.05835,160
321,321,100017523,Saint-Urbain,11/8/2014,45.5193951,-73.58866311,182
322,322,100017789,Hippodrome (chemin de halage),1/19/2015,45.76754,4.908551,266
323,323,100017799,Holmenkollen Nasjonalanlegg,12/8/2014,59.96497,10.669804,10
324,324,100017862,Taubenheim Str. von Kursaal,12/19/2016,48.80535826,9.226311009,63
325,325,100017863,Waiblinger Str. Ri. Fellbach,12/19/2016,48.8053201,9.2266209,1
326,326,100017946,South Keys Bridge,11/23/2014,45.35406,-75.658844,83
327,327,100018241,Rustadsaga,12/10/2014,59.872997,10.856118,295
328,328,100018242,Sognsvann,12/10/2014,59.968693,10.731999,1
329,329,100018264,New counter 01,1/1/1900,0,0,22
330,330,100018267,600 Penn,4/15/2016,40.442806,-80.00173,3
331,331,100018268,900 Penn,4/15/2016,40.444187,-79.99679,1
332,332,100018269,1200 Penn,4/15/2016,40.44608,-79.991714,1
333,333,100018487,Peace Bridge Cyclist Counts,4/24/2014,51.05354,-114.07838,218
334,334,100018531,South Barrington Temp,11/30/2014,44.641,-63.57,44
335,335,100019208,Imperial Beach Bayshore Bikeway EB & WB - Bike,5/16/2014,32.589527,-117.1102,677
336,336,100019209,National City Sweetwater Bike Path EB & WB - Bike,9/24/2012,32.657387,-117.071625,1
337,337,100019210,National City Sweetwater Bike Path EB & WB - Ped,9/24/2012,32.65724,-117.07013,1
338,338,100019211,Imperial Beach Bayshore Bikeway EB & WB - Ped,5/16/2014,32.589455,-117.11242,1
339,339,100019274,SD Sorrento Valley Rd NB & SB - Bike,11/8/2013,32.91741,-117.23814,63
340,340,100019275,Del Mar Camino Del Mar - Ped Eastside,2/9/2012,0,0,1
341,341,100019325,Loaner1537,2/24/2015,36.008217,-95.93165,50
342,342,100019385,Coventry Bridge,2/9/2015,45.41887,-75.652855,60
343,343,100019720,5.03 BN - Nordbrücke (Südseite),5/1/2015,50.75490458,7.096788329,335
344,344,100019721,5.04 BN - Nordbrücke (Nordseite),5/1/2015,50.75769827,7.101340951,1
345,345,100019722,5.05 BN - Südbrücke (Südseite),5/1/2015,50.71546283,7.142160723,1
346,346,100019723,5.06 BN - Südbrücke (Nordseite),5/1/2015,50.719436,7.144403348,1
347,347,100019724,5.07 BN - Estermannufer,5/1/2015,50.7680718,7.068537905,1
348,348,100019725,5.10 BN - Bröhltalweg,5/1/2015,50.742508,7.113626,1
349,349,100019726,5.11 BN - Brühler Straße,6/1/2015,50.740383,7.069422,1
350,350,100019727,5.12 BN - Straßenburger Weg,7/1/2015,50.71930388,7.113497309,1
351,351,100019728,5.08 BN - Von-Sandt-Ufer,6/1/2015,50.700893,7.166909,1
352,352,100019729,5.09 BN - Rhenusallee,6/1/2015,50.72213,7.134297,1
353,353,100019731,2.08 RSK - Neunk.-Seelscheid,7/3/2015,50.874657,7.331745,2
354,354,100019732,2.01 RSK - Windeck,8/22/2015,50.80748,7.59644,1
355,355,100019733,2.02 RSK - Hennef,6/29/2015,50.773903,7.3775787,1
356,356,100019734,2.03 RSK - Sankt Augustin,7/18/2015,50.79667,7.1651273,1
357,357,100019735,2.04 RSK - Niederkassel,9/10/2015,50.799595,7.0360007,1
358,358,100019736,2.06 RSK - Bornheim,9/11/2015,50.76238,6.972411,1
359,359,100019737,2.07 RSK - Lohmar,6/2/2015,50.82845791,7.205303138,1
360,360,100019738,2.05 RSK - Königswinter,9/10/2015,50.67356,7.1916995,1
361,361,100019739,2.09 RSK - Meckenheim,9/10/2015,50.62785782,6.988360034,1
362,362,100019740,2.10 RSK - Wachtberg,7/17/2015,50.64481,7.099431,1
363,363,100019755,6.02 K - Vorgebirgspark,5/31/2015,50.913017,6.948681,15
364,364,100019756,6.03 K - Alphons-Sibermann-Weg,5/27/2015,50.930084,6.930417,1
365,365,100019757,6.04 K - Stadtwald,5/22/2015,50.933098,6.8929157,1
366,366,100019758,6.05 K - Niederländer Ufer,5/28/2015,50.962322,6.986403,1
367,367,100019777,ANTOFAGASTA EN BICICLETA,4/28/2015,-23.59598,-70.39641,19
368,368,100019778,BUSTAMANTE,3/29/2015,-33.43926389,-70.63201315,1
369,369,100019809,5.01 BN - Kennedybrücke (Nordseite),4/1/2015,50.73871332,7.11321441,31
370,370,100019810,5.02 BN - Kennedybrücke (Südseite) Barometer,4/1/2015,50.7376322,7.106626754,1
371,371,100020095,5 Street North of 10 Ave SW,6/18/2015,51.044643,-114.073906,285
372,372,100020103,Stephen Avenue Bicycle Counts,10/23/2014,51.045803,-114.06171,8
373,373,100020104,Stephen Avenue Car Counts,10/20/2014,51.04554,-114.063644,1
374,374,100020198,Aksla,7/1/2015,69.63816,18.999384,94
375,375,100020199,Dalbergstien,7/1/2015,69.63743973,18.98638926,1
376,376,100020201,Stephen Avenue Bicycle Counts,10/23/2014,51.045574,-114.06489,2
377,377,100020207,Stephen Avenue Counts,10/22/2014,51.045563,-114.06445,6
378,378,100020243,Stephen Avenue Car & Cyclist Counts,10/23/2014,51.045555,-114.06421,36
379,379,100020479,POCURO,3/29/2015,-33.43508,-70.60382,236
380,380,100020660,Y2H15037455,3/30/2016,51.048805,-114.08899,181
381,381,100020661,10 St North of 5 Ave NW,3/22/2016,51.05897537,-114.0854958,1
382,382,100020865,"Madison, WI – Eco-Totem on the Capital City Trail at North Shore Dr.",6/23/2015,43.06741,-89.38508,204
383,383,100020873,Capital Crescent Trail #2,2/11/2015,38.94307,-77.11566,8
384,384,100020981,Seattle Fremont Bridge,10/8/2012,47.64811715,-122.3498142,108
385,385,100020993,SWCT Permanent Counter,5/29/2015,30.26228,-97.68429,12
386,386,100020994,JCT Permanent Counter,5/29/2015,30.27602,-97.77029,1
387,387,100020995,Boardwalk Permanent Counter,5/29/2015,30.25478612,-97.74266339,1
388,388,100021131,Bordan Street,12/22/2014,43.440197,-80.47681,136
389,389,100021132,Queen Street,12/22/2014,43.44348,-80.49607,1
390,390,100021143,Kennedybrücke,4/1/2015,50.73819495,7.110285443,11
391,391,100021182,Østensjøvn ved Østensjøvannet,9/8/2015,59.8941,10.8328,39
392,392,100021183,Jon Smestads vei 4,5/13/2015,59.93746,10.680129,1
393,393,100021184,Bærumsveien 22,5/15/2015,59.926468,10.634876,1
394,394,100021185,Ullern gårdsvei 40,5/13/2015,59.925081,10.646841,1
395,395,100021390,Vækerøveien 146A,7/10/2015,59.93625,10.63983,205
396,396,100021391,Hoffsveien,5/21/2015,59.93059,10.6759,1
397,397,100021392,Cykelbarometer,5/8/2016,59.398705,17.982925,1
398,398,100021426,SS-22 State St. North Side,5/29/2015,43.074787,-89.387405,34
399,399,100021427,SS-23 State St. South Side,5/29/2015,43.07469,-89.38772,1
400,400,100021607,Hickory Bridge,5/3/2015,45.39817,-75.709984,180
401,401,100021727,6.01 K - Alfred Schütte kpl,5/18/2015,50.914497,6.9818854,120
402,402,100022012,Mobil sykkelteller,6/15/2015,61.09907349,10.4852105,285
403,403,100022226,01 Bonner Straße Rad,2/28/2012,0,0,214
404,404,100022305,Storgata_Lilletorget,7/15/2015,61.11565332,10.48515532,79
405,405,100022540,5 Street North of 5 Ave SW Perm,6/17/2015,51.049423,-114.07359,235
406,406,100022541,5 Street North of 15 Ave SW Perm,6/16/2015,51.039036,-114.07439,1
407,407,100022543,5 St North of 10 Ave,6/16/2015,51.043907,-114.07388,2
408,408,100022547,8 Ave West of 8 St SW EB,6/10/2015,51.046043,-114.0817,4
409,409,100022580,12 Ave West of 2 St SW Perm,6/16/2015,51.041634,-114.068985,33
410,410,100022581,12 Ave West of 8 St SW Perm,6/16/2015,51.04198,-114.08213,1
411,411,100022582,12 Ave West of 3 St SE Perm,6/16/2015,51.04131,-114.05776,1
412,412,100023038,Broadway Eco-Totem,6/23/2015,42.363304,-71.085754,456
413,413,100023071,Sperling,1/1/2001,0,0,33
414,414,100023085,Winston - Sperling,7/2/2009,49.24301,-122.97224,14
415,415,100023269,01 K - Bonner Straße Rad,4/1/2012,50.9182,6.960489,184
416,416,100023270,02 K - Venloer Straße Rad,7/1/2014,50.945816,6.9266076,1
417,417,100023387,M2L1 - BTW BUCKHOUSE & BLUE MTN,10/21/2015,46.82696,-114.070015,117
418,418,100023388,M2L2 - BTW BLUE MTN & WEIGH STATION,10/21/2015,46.801346,-114.09599,1
419,419,100023389,M2L3 - S OF MORMON CRK RD,10/21/2015,46.747185,-114.08304,1
420,420,100023514,Sussex at Macdonald-Cartier Bridge,8/20/2015,45.43538715,-75.69849216,125
421,421,100023678,Bike Counts in 2015,1/1/2015,0,0,164
422,422,100024146,Nordstrandveien 59,10/7/2015,59.86035,10.80796,468
423,423,100024147,Tvetenveien,10/7/2015,59.9132,10.82386,1
424,424,100024148,Holmenkollvn 42,9/10/2015,59.94954,10.67611,1
425,425,100024149,Trasop skole,9/10/2015,59.90593,10.85111,1
426,426,100024150,Vaterlands bro,10/2/2015,59.91341,10.75789,1
427,427,100024151,Kierschowsgate 10,9/11/2015,59.93691,10.74792,1
428,428,100024230,Sherwood Forest,9/18/2015,37.33722,-77.01868,79
429,429,100024231,Adkins Road,9/18/2015,37.332188,-77.10073,1
430,430,100024232,Four Mile Creek,9/17/2015,37.43519565,-77.32803408,1
431,431,100024233,Almond Creek,9/17/2015,37.50754,-77.413864,1
432,432,100024234,Willis Church,9/17/2015,37.405174,-77.26437,1
433,433,100024235,Herring Creek,9/18/2015,37.33797,-77.17409,1
434,434,100024236,Chickahominy River,9/18/2015,37.262756,-76.88913,1
435,435,100024297,8 Ave West of 8 Street,7/11/2015,51.04605,-114.081604,61
436,436,100024362,Folsom @ Boulder Creek,9/8/2011,40.01304,-105.26307,65
437,437,100024363,Folsom @ Pine,7/20/2015,40.02342,-105.26363,1
438,438,100024364,Folsom @ South St.,7/20/2015,40.01965,-105.263115,1
439,439,100024535,"TriMet - Tilikum Crossing, Eastbound",8/7/2015,45.50327237,-122.669503,171
440,440,100024536,"TriMet - Tilikum Crossing, Westbound",8/6/2015,45.50658922,-122.6641113,1
441,441,100024559,Bike Barometer: Portland Tilikum Crossing,9/9/2015,45.505068,-122.666801,23
442,442,100024661,Jannowitzbrücke,4/1/2015,52.51406586,13.41775102,102
443,443,100024661,Jannowitzbrücke,4/1/2015,52.51406586,13.41775102,0
444,444,100024668,Prescott Russell Site 1 - ZELT Only,8/19/2015,45.41792,-75.55974,7
445,445,100024668,Prescott Russell Site 1 - ZELT Only,8/19/2015,45.41792,-75.55974,0
446,446,100024763,"Števec kolesarjev -  Novo mesto, Glavni trg ",9/15/2015,45.801926,15.170695,95
447,447,100024763,"Števec kolesarjev -  Novo mesto, Glavni trg ",9/15/2015,45.801926,15.170695,0
448,448,100025075,Langmatt,12/1/2015,47.03501,8.259913,312
449,449,100025076,Schlundstrasse,12/1/2015,47.02812,8.28801,1
450,450,100025077,Nidfeldstrasse,1/1/2016,47.02758867,8.298966223,1
451,451,100025078,Horwerstrasse,12/1/2015,47.03198,8.2837,1
452,452,100025079,Langsägestrasse,12/1/2015,47.038303,8.294642,1
453,453,100025080,Schachenstrasse,12/1/2015,47.03499833,8.280477756,1
454,454,100025080,Schachenstrasse,12/1/2015,47.03499833,8.280477756,0
455,455,100025243,Nanny Goat Hill,11/6/2015,45.41563724,-75.70742316,163
456,456,100025372,FR3 Eschholzstr. / Egonstraße - Radfahrende im Querschnitt,1/1/2015,47.999683,7.83709,129
457,457,100025474,Saint-Laurent/Bellechasse,12/1/2016,45.52781954,-73.60311217,102
458,458,100025615,Kyststien Engersand,11/9/2015,59.72830901,10.30333274,141
459,459,100025792,O-Train Trillium at Beech,6/24/2016,45.40055472,-75.71112656,177
460,460,100026088,Taubenhaus (603),1/1/2012,47.04239,8.302204,296
461,461,100026123,San Sebastian,11/8/2015,43.29995,-1.9561509,35
462,462,100026124,Bilbao - Ayuntamiento,11/8/2015,43.26413,-2.9240992,1
463,463,100026313,"Folsom @ South St. - Non Active, Pending Reconf.",7/20/2015,40.01965,-105.263115,189
464,464,100026469,Lysløype Fet,2/26/2016,59.752403,5.3066645,156
465,465,100026656,Avenida Gasteiz,11/5/2015,42.849293,-2.6813104,187
466,466,100026846,Compteur t'est ,1/1/2016,48.75720027,-3.463690546,190
467,467,100027012,Lower Causeway (700 Government - West),6/8/2017,48.42168484,-123.3688836,166
468,468,100027013,Hotel Rialto (600 Pandora - South),6/7/2017,48.42799149,-123.3649496,1
469,469,100027014,Fort St (800 Fort - South),6/7/2017,48.42414782,-123.3619243,1
470,470,100027015,Public Market (1700 Douglas - East),6/7/2017,48.42968783,-123.364285,1
471,471,100027018,Åsbieskogen (Arendal kommune),6/11/2019,58.45380843,8.725426727,3
472,472,100027019,Fevik - strandpromenaden (Grimstad kommune),1/1/2019,58.37142299,8.671525055,1
473,473,100027020,Lyngmyr - Fagerhei (Tvedestrand kommune),1/1/2018,58.63120711,8.941505486,1
474,474,100027021,Urheia (Risør kommune),2/25/2019,58.72342485,9.232814842,1
475,475,100027022,Hasseltangen (Grimstad kommune),1/1/2019,58.392487,8.724341,1
476,476,100027039,Hove (Arendal kommune),5/28/2019,58.43630921,8.827339667,17
477,477,100027059,Øynaheia (Froland kommune),1/1/2019,58.515869,8.410717779,20
478,478,100027060,Dømmesmoen (Grimstad kommune),1/1/2019,58.35562076,8.573935562,1
479,479,100027061,Kleivvann/Havrefjell (Gjerstad/Nissedal kommune),1/1/2019,58.884068,8.902749,1
480,480,100027062,Myra - lysløypa VSA (Vegårshei kommune),1/1/2019,58.74804706,8.85048204,1
481,481,100027063,Hillestadheia (Åmli kommune),1/1/2019,58.82926229,8.193791443,1
482,482,100027075,5.14 BN - Mc Cloy Weg,2/1/2016,50.6709115,7.1880155,12
483,483,100027076,5.15 BN - Weg auf Damm Neil,2/1/2016,50.73356,7.11554,1
484,484,100027077,5.13 BN - Wilhelm-Spiritus-Ufer,2/1/2016,50.72844501,7.111953889,1
485,485,100027116,Butler Trail,2/16/2016,30.27475183,-97.77071379,39
486,486,100027141,Svartneset,11/13/2015,63.42966461,10.80533054,25
487,487,100027494,R. Vergueiro,1/16/2016,-23.5777752,-46.64073932,353
488,488,100027495,Faria Lima,1/18/2016,-23.568817,-46.69212,1
489,489,100027939,Klevvann(Gjerstad kommune),1/1/2018,58.88407291,8.90214266,444
490,490,100028002,Piloto Lx,1/26/2016,38.73515759,-9.144545259,63
491,491,100028353,Gabriela Mistral con Andes,1/1/2017,-38.72913,-72.62009,351
492,492,100029087,1200 Penn Bikes Only,4/15/2016,40.44608,-79.99171,734
493,493,100029088,900 Penn Bikes Only,4/15/2016,40.44419,-79.99679,1
494,494,100029089,600 Penn Bikes,4/2/2015,40.442776,-80.00172,1
495,495,100029120,Penn 1200 Bikes Only,4/15/2016,40.44608,-79.99171,31
496,496,100029121,Penn 900 Bikes Only,4/15/2016,40.44419,-79.99679,1
497,497,100029123,Penn 600 Bikes Only,4/15/2016,40.44281,-80.00173,2
498,498,100029851,NTFK #4,5/11/2016,63.87267,11.29436,728
499,499,100029854,03 K - Hohenzollernbrücke,4/1/2016,50.94118,6.9701,3
500,500,100029902,Sickla allé/ Sickla strand,4/28/2016,59.30272157,18.11636216,48
501,501,100029903,Järlaleden,4/28/2016,59.3058196,18.13492483,1
502,502,100029904,Värmdövägen Nacka Forum,5/2/2016,59.30826871,18.16312815,1
503,503,100029905,Värmdövägen Björknäs,5/2/2016,59.31535373,18.23008284,1
504,504,100029916,Pinawa Friends of the Trans Canada Trail,5/7/2016,50.14468,-95.87556,11
505,505,100029965,Ernst-Walz-Brücke Richtung Stadt,6/1/2014,49.408844,8.676709,49
506,506,100029972,Knox Mountain - Apex Trail,5/15/2017,49.89215399,-119.4056446,7
507,507,100030145,Ritz Hotel (700 Fort - North),6/7/2017,48.42466065,-123.364871,173
508,508,100030168,Rails with Trails,3/22/2016,49.887615,-119.4569,23
509,509,100030332,Bjørgan skianlegg #1,3/27/2016,64.39220551,12.33317157,164
510,510,100030353,Toteemi,4/27/2016,60.47905,22.19256,21
511,511,100030402,Bow River Pathway,3/30/2016,51.04957609,-114.0863856,49
512,512,100030418,04 K - Neumarkt kpl,3/24/2016,50.93637257,6.947836757,16
513,513,100030452,9 Ave West of 4 St SE,6/16/2015,51.04436368,-114.0539707,34
514,514,100030470,Sentier de la marinade,4/6/2016,45.84913,4.84667,18
515,515,100030488,Clifton NB,3/22/2016,49.892555,-119.46571,18
516,516,100030490,Clifton SB,3/22/2016,49.8925189,-119.4658804,2
517,517,100030491,Ethel St ATC,3/22/2016,49.88467107,-119.4828044,1
518,518,100030517,06 K - Zülpicher Straße kpl.,4/7/2016,50.92740654,6.93428398,26
519,519,100030584,Sentiers des Grandes Terres,4/8/2016,45.6712,4.8757696,67
520,520,100030585,Sentier de Sacuny,4/8/2016,45.687847,4.77702,1
521,521,100030586,Sentier du Biézin nature,4/8/2016,45.754517,4.9588695,1
522,522,100030610,Pensacola Street at Martin Luther King Jr. Blvd,11/29/2016,30.43876859,-84.28628747,24
523,523,100030611,Madison Street at Boulevard Street,1/19/2017,30.4382559,-84.2807329,1
524,524,100030630,Sentier de Sermenaz,4/18/2016,45.81894,4.908427,19
525,525,100030638,Sentier du bois de Serres,4/18/2016,45.796566,4.7575192,8
526,526,100030640,Sentier jeu de regards,4/18/2016,45.77457,4.729683,2
527,527,100030642,Sentier du vallon de l'Yzeron,4/18/2016,45.742382,4.739413,2
528,528,100030651,Sentier de l'Homme et du Paysage,4/19/2016,45.83286,4.808203,9
529,529,100030652,Sentier du ruisseau de Rochecardon,4/19/2016,45.809753,4.782476,1
530,530,100030659,Boucle du Franc Lyonnais,4/19/2016,45.883167,4.854068,7
531,531,100030676,Sentier de l'Homme et du fleuve,4/20/2016,45.641506,4.815302,17
532,532,100030761,8 Ave West of 3 Street SW,7/10/2015,51.045746,-114.07067,85
533,533,100030761,8 Ave West of 3 Street SW,7/10/2015,51.045746,-114.07067,0
534,534,100030768,8 Ave West of 3 Street,7/9/2015,51.045742,-114.07051,7
535,535,100030820,Seattle 2nd Avenue,4/23/2016,47.60478163,-122.3347628,52
536,536,100030837,Adawe Crossing,12/4/2015,45.42604608,-75.67060983,17
537,537,100030931,Pablo Neruda con Olimpia,1/1/2017,-38.73991455,-72.6229949,94
538,538,100030932,Pablo Neruda con J. Carrera ,1/1/2017,-38.73847,-72.62889,1
539,539,100030933,Gabriela Mistral con Recreo.,1/1/2017,-38.72843,-72.61454,1
540,540,100030934,Hochstetter con B. O´Higgins ,1/1/2017,-38.73938,-72.61802,1
541,541,100030935,Hochstetter con Pucon,1/1/2017,-38.72965,-72.61093,1
542,542,100030986,Challenge Velo D788 (face IUT),5/4/2016,48.758408,-3.453648,51
543,543,100030989,D788 (face NOKIA),5/5/2016,48.758378,-3.453864,3
544,544,100030993,rue blaise Pascal (face construction Parlouer),5/4/2016,48.75981,-3.47949,4
545,545,100031062,Bologna - Via Sabotino,5/18/2016,44.497074,11.323423,69
546,546,100031197,"Solemstien, Overhalla NTFK#1 ",5/19/2016,64.54289,11.97386,135
547,547,100031222,D788,5/1/2016,48.75861,-3.4536264,25
548,548,100031285,Eco-Totem BH,6/28/2016,-19.932713,-43.929935,63
549,549,100031435,Levanger Moan NTFK #2,5/31/2016,63.74305,11.279907,150
550,550,100031441,8th Ave west of 8th street,6/15/2015,51.045986,-114.081795,6
551,551,100031480,Rock Creek Trail 1,4/28/2017,39.016129,-77.094196,39
552,552,100031482,Matthew Henson Trail 1,4/28/2017,39.08165896,-77.04735782,2
553,553,100031483,Rock Creek Trail 2,8/15/2016,39.090257,-77.113817,1
554,554,100031483,Rock Creek Trail 2,8/15/2016,39.090257,-77.113817,0
555,555,100031968,Randvik,5/28/2019,58.709534,9.222121,485
556,556,100031969,Lyngør (Tvedestrand kommune),1/1/2019,58.63335,9.135264,1
557,557,100031970,Granestua (Arendal kommune),1/1/2019,58.528156,8.753503,1
558,558,100031971,Merdø (Arendal kommune),1/1/2019,58.42606,8.805114,1
559,559,100032128,Troldhaugen,10/27/2016,60.31947185,5.329154569,157
560,560,100032129,Siljustøl,10/6/2016,60.29351186,5.298078441,1
561,561,100032130,Lysøen,10/6/2016,60.21373815,5.36198853,1
562,562,100032131,KODE 3,8/19/2016,60.3895,5.3275757,1
563,563,100032146,NCC Western Canal Pathway at Ritz - Ottawa Counter,7/3/2015,45.40675,-75.68186,15
564,564,100032152,Invalidenstraße,6/1/2015,52.52718,13.37202,6
565,565,100032154,Frankfurter Allee,6/1/2016,52.51373868,13.47436716,2
566,566,100032155,Berliner Straße,5/1/2016,52.56681,13.41217,1
567,567,100032159,Schwedter Steg,4/1/2012,52.54884,13.40037,4
568,568,100032161,Klosterstraße,6/1/2016,52.533665,13.198963,2
569,569,100032163,Breitenbachplatz,5/1/2016,52.46676,13.30916,2
570,570,100032165,Monumentenstraße,5/1/2015,52.48812,13.36979,2
571,571,100032166,Mariendorfer Damm,5/1/2016,52.438305,13.387879,1
572,572,100032169,Markstraße,5/1/2015,52.55819,13.36494,3
573,573,100032212,Oberbaumbrücke,6/1/2015,52.5012,13.44506,43
574,574,100032236,Maybachufer,5/1/2016,52.49311816,13.42914925,24
575,575,100032237,Kaisersteg,5/1/2016,52.45775788,13.5193596,1
576,576,100032269,Kvaløya,7/22/2016,69.689699,18.811952,32
577,577,100032454,Konrad Adenauer Allee,9/17/2016,48.36373435,10.895953,185
578,578,100032641,UCLA Westwood Bike Counter,5/9/2017,34.06431432,-118.445247,187
579,579,100032655,James Street Stairs,7/7/2016,43.24614678,-79.87411673,14
580,580,100032657,Wentworth Street Stairs,7/7/2016,43.24326768,-79.85264226,2
581,581,100032661,Kimberly Drive Stairs,7/7/2016,43.22907365,-79.81381454,4
582,582,100032714,Chedoke Stairs,7/5/2016,43.24569463,-79.90691219,53
583,583,100032715,Dundurn Street Stairs,7/5/2016,43.24546521,-79.89521739,1
584,584,100032754,King Street West Cycle Track,7/19/2016,43.26274122,-79.89090887,39
585,585,100032755,Waterfront Trail (Bayfront Park),7/12/2016,43.26928668,-79.87249888,1
586,586,100032772,Südbrücke,5/1/2016,50.71763663,7.143513524,17
587,587,100032920,Cyrville Road,11/16/2016,45.4235124,-75.63509872,148
588,588,100032983,KunstLab,8/15/2016,60.389294,5.3289094,63
589,589,100033028,University Ave. Bike Lane (Rowe),4/27/2017,44.6370275,-63.5882169,45
590,590,100033035,Paul- und Paula-Uferweg,6/1/2015,52.50025,13.47438,7
591,591,100033037,Alberichstraße,7/1/2015,52.4925,13.55849,2
592,592,100033038,Yorckstraße,4/1/2015,52.49199,13.37412,1
593,593,100033039,Prinzregentenstraße,4/1/2015,52.49058,13.33308,1
594,594,100033088,KODE 4 ,8/25/2016,60.389313,5.328995,49
595,595,100033089,KODE 2,8/19/2016,60.390068,5.3253474,1
596,596,100033127,沧州解放西路自行车计数,12/11/2016,38.30372,116.82741,38
597,597,100033128,沧州运河绿道客流计数,10/1/2016,38.30882,116.84638,1
598,598,100033129,北京杨梅竹斜街胡同多方式计数,10/3/2016,39.89433351,116.386365,1
599,599,100033130,北工大便携计数,9/30/2016,39.894337,116.38904,1
600,600,100033550,Edmonton Trail,9/7/2016,51.051323,-114.050316,420
601,601,100033615,Friedrichstr,9/21/2016,51.21577,6.77688,65
602,602,100033660,Elisabethstr,9/21/2016,51.21722715,6.775415967,45
603,603,100033674,Suvantosilta1,10/10/2016,62.59779245,29.76352289,14
604,604,100033675,Suvantosilta 2,10/10/2016,62.59809,29.76358,1
605,605,100033917,Belmont Pier Eco-TOTEM,9/21/2016,33.75895442,-118.1484627,242
606,606,100033965,HCC Tube Counter,8/30/2018,44.64115,-63.57923,48
607,607,100033984,Árpád híd,12/2/2016,47.53654858,19.05872914,19
608,608,100033985,Bem rakpart,12/2/2016,47.5122577,19.03949621,1
609,609,100033986,Weiss Manfréd út,12/3/2016,47.45627915,19.07142798,1
610,610,100033987,Hungária körút,12/1/2016,47.48898391,19.10923998,1
611,611,100033989,Lágymányosi híd,10/30/2016,47.46876479,19.07097952,2
612,612,100034053,Matthew Henson Trail 2,8/16/2016,39.058318,-77.0916,64
613,613,100034165,O'Connor @ Argyle,10/13/2016,45.41172757,-75.69040081,112
614,614,100034249,Arsenal ,12/13/2016,47.03814058,8.299547643,84
615,615,100034250,Kleinmatt,12/13/2016,47.04077957,8.306729119,1
616,616,100034452,Kvarnholmsvägen,12/5/2016,59.31198464,18.10941893,202
617,617,100034495,Marine Parade,5/2/2013,-39.5007888,176.9193886,43
618,618,100034496,Gloucester Street Taradale,2/3/2017,-39.54778958,176.8400694,1
619,619,100034497,Clifton Road,2/24/2017,-39.62194752,176.9628708,1
620,620,100034500,Main @ Evelyn,6/17/2017,45.41136628,-75.67931701,3
621,621,100034501,Main @ Centennial,6/17/2017,45.401682,-75.67365806,1
622,622,100034648,Santa Monica – Bike Counter – Main Street,12/21/2016,34.01196759,-118.492668,147
623,623,100034761,Műegyetem rakpart K. épület,11/21/2016,47.48224307,19.05623535,113
624,624,100034882,König-Karls-Brücke,7/1/2012,48.79912609,9.210372162,121
625,625,100034893,Hundertmännerstraße,1/1/2014,54.081974,12.114006,11
626,626,100034894,Böblinger Straße,1/1/2014,48.74661091,9.135662268,1
627,627,100034894,Böblinger Straße,1/1/2014,48.74661091,9.135662268,0
628,628,100035004,Nordbrücke,5/1/2015,50.75639231,7.099492972,110
629,629,100035097,Langensandbrücke ,12/1/2016,47.04544,8.30929,93
630,630,100035126,8 Gillie Creek,2/18/2017,37.52275451,-77.41788135,29
631,631,100035172,Remington Bicycle Counter,12/11/2016,40.56887055,-105.0753297,46
632,632,100035242,Mackenzie @ Rideau,1/1/2017,45.42551994,-75.6943767,70
633,633,100035361,Waiblinger Str. Ri. Stadtmitte,12/14/2016,48.80515,9.22641,119
634,634,100035363,Waibl Stadtmitte,12/14/2016,48.80516,9.22629,2
635,635,100035631,Sunna kanal,5/10/2017,56.18880223,15.61322881,268
636,636,100035632,Söder om Torskors ind.område,5/10/2017,56.21513079,15.63985971,1
637,637,100035633,Verkö/Lyckeby,5/10/2017,56.19450171,15.64115834,1
638,638,100035640,Alcazar,3/15/2017,-37.47648361,-72.36265417,7
639,639,100035876,Cannon Street Cycle Track (West) - Total,12/11/2015,43.25799372,-79.85604196,236
640,640,100035887,Cannon Street Cycle Track (Bay) - Total,12/11/2015,43.26200686,-79.87299412,11
641,641,100036173,"Via Traiana - Parco Naturale Regionale ""Dune Costiere""",3/31/2017,40.78535953,17.51081825,286
642,642,100036173,"Via Traiana - Parco Naturale Regionale ""Dune Costiere""",3/31/2017,40.78535953,17.51081825,0
643,643,100036476,University Avenue Bike Display,4/28/2017,44.63761253,-63.58840039,303
644,644,100036486,Schachenstr. Velo,12/1/2015,47.03497312,8.280624241,10
645,645,100036488,Langsägestrasse Velo,12/1/2015,47.0383,8.29464,2
646,646,100036489,Langsägestrasse Velo,12/1/2015,47.0383,8.29464,1
647,647,100036499,403 (Hamilton-Brantford Trail),2/23/2017,43.25185328,-79.90994917,10
648,648,100036499,403 (Hamilton-Brantford Trail),2/23/2017,43.25185328,-79.90994917,0
649,649,100037010,Hinrichshagen,3/27/2017,54.19088341,12.18219011,511
650,650,100037011,Markgrafenheide,3/27/2017,54.19103434,12.18094564,1
651,651,100037012,Graal-Müritz,6/16/2015,54.19104662,12.18174004,1
652,652,100037111,Świnoujście,5/15/2017,53.92647772,14.2261767,99
653,653,100037112,Rogowo,5/15/2017,54.15462697,15.37698812,1
654,654,100037122,King St. West & Cannon St. (Bay) Cycle Track Total,12/9/2014,43.259419,-79.878747,10
655,655,100037170,König-Karls-Brücke ,7/1/2012,48.79907109,9.210355904,48
656,656,100037243,Av. Eng. J. Meireles,4/13/2017,37.0828052,-8.117742945,73
657,657,100037306,Av. da Marina,4/13/2017,37.0774987,-8.116660011,63
658,658,100037429,YSH17042064,7/9/2018,0,0,123
659,659,100037444,FMI00000454,4/24/2017,50.65816974,4.580880085,15
660,660,100037507,Waiblinger Str. Ri. Augsburger Platz,1/1/2014,48.80498248,9.226468548,63
661,661,100037508,Taubenheimstr. von Deckerstr.,1/1/2014,48.80495412,9.226962275,1
662,662,100037687,Corso Nizza Display,5/21/2017,44.38639039,7.544525343,179
663,663,100037688,Corso Nizza Provincia,5/16/2017,44.386241,7.544756888,1
664,664,100037750,Waterlily,6/6/2017,48.64880332,-123.3951735,62
665,665,100037899,Glenlyon - North Fraser Way,9/19/2017,49.20034636,-123.0102447,149
666,666,100038129,Contabici Corso Nizza,5/21/2017,44.38624,7.54476,230
667,667,100038433,Santuario Angeli,10/20/2017,44.36845907,7.538894203,304
668,668,100038434,Pedancola Vassallo,10/19/2017,44.39322455,7.535487003,1
669,669,100038466,Silk Road (1600 Government - West),6/7/2017,48.42913168,-123.3672542,32
670,670,100038528,"Stephen Ave Counts (Pedestrians, Bikes & Cars)",10/22/2014,51.04554629,-114.0647387,62
671,671,100038690,Sirkkalan silta Etelä,7/24/2017,62.60307989,29.7690218,162
672,672,100038691,Sirkkalan silta Pohj,7/24/2017,62.60262,29.77349,1
673,673,100039000,Willingdon Linear Park - Brentlawn,11/29/2017,49.26981746,-123.0027419,309
674,674,100039001,Willingdon Linear Park - Frances,7/4/2017,49.27908506,-123.0030367,1
675,675,100039002,Willingdon Linear Park - Hastings,7/4/2017,49.28071329,-123.0028758,1
676,676,100039435,Wagenhalsstraße,12/1/2017,48.36483,10.90473,433
677,677,100039469,Radweg an der Aurach,1/1/2018,49.56765,10.88042,34
678,678,100039609,MacArthur Ave Display,11/23/2017,-35.25991255,149.1280486,140
679,679,100039656,La Pignatta,7/27/2017,48.64765662,-123.4000446,47
680,680,100039659,7-11 Beacon Ave.,7/27/2017,48.64902116,-123.4025498,3
681,681,100039661,Willingdon - Deer Lake Pkwy,2/18/2018,49.24359,-123.00298,2
682,682,100039662,Willingdon - Goard Way,2/18/2018,49.25216,-123.00436,1
683,683,100039663,Willingdon - Sanderson Way,2/18/2018,49.24824,-123.00423,1
684,684,100040109,Bicivia 7,3/14/2018,41.3832133,2.106744716,446
685,685,100040135,High Rock Park_Blue & Yellow_Trail,1/16/2019,40.79162052,-73.93507426,26
686,686,100040190,Apache South Site,1/3/2018,33.41486337,-111.9348541,55
687,687,100040191,Forest North Site,1/4/2018,33.42182202,-111.9366657,1
688,688,100040193,LaTourette Park--GNC Trail/Bridge,8/1/2018,40.76760988,-73.97130226,2
689,689,100040476,Ulrichsbrücke,1/1/2017,48.37601197,10.91323737,283
690,690,100040696,Adawe Crossing Cyclists,12/26/2009,45.42604608,-75.67060983,220
691,691,100040697,Adawe Crossing Peds/Pietons,12/26/2009,45.42604608,-75.67060983,1
692,692,100040870,Leipzig,10/25/2017,51.33587154,12.36744767,173
693,693,100041000,West Giralda,10/13/2017,25.75127,-80.25872,130
694,694,100041114,Eco-Display Parc Stanley,5/29/2018,45.55759297,-73.67322198,114
695,695,100041252,Vidden,11/27/2017,60.3833333,5.4,138
696,696,100041597,Entdeckerpfad,11/28/2017,54.18458914,12.23723796,345
697,697,100041680,NCC Western Canal Pathway at Ritz - Oct 2017 ,10/6/2017,45.40675112,-75.68175771,83
698,698,100041791,Mackenzie @ Rideau Peds,12/25/2009,45.42551467,-75.6943741,111
699,699,100041792,Mackenzie @ Rideau Bikes,12/25/2009,45.42547667,-75.69435553,1
700,700,100041858,PORTA S  VITALE BOLOGNA,1/5/2018,44.49380879,11.35710676,66
701,701,100041999,Stadt Ludwigsburg Radzählstelle Alleenstraße ,12/19/2017,48.89318854,9.192943239,141
702,702,100042000,Eco-Display Turuntie,12/12/2017,60.99234797,24.44476398,1
703,703,100042081,Repokallio,12/7/2017,62.62409,29.69158,81
704,704,100042082,Lykynlampi,12/7/2017,62.68911,29.72692,1
705,705,100042159,Kardaun,1/4/2018,46.49466585,11.39027576,77
706,706,100042228,Poznań - pl.Wolności,3/30/2018,52.40780212,16.9262317,69
707,707,100042233,Pötkä,12/13/2017,62.60536805,29.77099377,5
708,708,100042272,Alexandrinenstr. ,7/26/2018,53.63673,11.41092,39
709,709,100042273,Franzosenweg,4/19/2018,53.6214,11.4213,1
710,710,100042274,Ostorfer Ufer,4/19/2018,53.61453,11.41205,1
711,711,100042275,Lübecker Str.       ,4/19/2018,53.63644,11.39811,1
712,712,100042310,Havrefjell (Nissedal kommune),5/1/2019,58.93023309,8.737715879,35
713,713,100042383,Darłowo,2/8/2018,0,0,73
714,714,100042617,Schnettkerbrücke,1/23/2018,51.49925,7.42673,234
715,715,100042858,Display,3/22/2018,41.23895579,-8.632939269,241
716,716,100042868,Multi,2/23/2018,41.22780975,-8.632614857,10
717,717,100042890,Estação,3/23/2018,41.2343917,-8.635428291,22
718,718,100042914,East Giralda.,10/13/2017,25.7513483,-80.25727175,24
719,719,100042915,West Giralda.,10/13/2017,25.75128259,-80.25814151,1
720,720,100043047,Darłowo,2/4/2018,54.41148991,16.396254,132
721,721,100043573,Licznik rowerowy - Armii Krajowej,4/23/2018,54.0991722,18.7649536,526
722,722,100043574,Licznik rowerowy - ul.Gdańska,4/23/2018,54.10124,18.77876,1
723,723,100043664,Burberry - 1101 Alberni Street,2/18/2018,49.28539934,-123.1238142,90
724,724,100043719,Strellson - 1108 Alberni St,2/22/2018,49.28563523,-123.1244692,55
725,725,100043720,Cornerston college - 609 W Hastings St,2/22/2018,49.28502194,-123.1132138,1
726,726,100043721,Vancouver Pen Shop - 512 W Hastings St,2/22/2018,49.28413597,-123.1122488,1
727,727,100043803,SFU school of Business - 500 Granville St,3/2/2018,49.28447396,-123.1149726,82
728,728,100043805,Granville Station- 600 Granville St ,3/2/2018,49.28309024,-123.1170642,2
729,729,100044068,Bob Jones Trail,5/5/2018,35.185,-120.704,263
730,730,100044104,X2I18034731,3/21/2018,37.09603938,-8.126772908,36
731,731,100044105,XSI18034634,4/20/2018,37.07748,-8.11646,1
732,732,100044106,XSI18034635,4/21/2018,37.07776936,-8.11616842,1
733,733,100044687,............................. Wojska Polskiego,4/23/2018,54.09114,18.7821,581
734,734,100044713,Rumble w.o. Nelson YAI18044990,1/28/2019,49.21491,-122.99473,26
735,735,100044729,05 Deutzer Brücke kpl.,4/5/2016,50.93649,6.96658,16
736,736,100045094,Vorgebirgswall,5/18/2018,50.92054908,6.94476961,365
737,737,100045372,Oppstemten,6/29/2018,60.37285441,5.380287571,278
738,738,100045471,Brook,7/2/2018,54.00581,11.04333,99
739,739,100045472,Klausdorf,7/18/2018,54.40105,13.02003,1
740,740,100045818,Eco-Display Rennes Metropole - Place de Bretagne,6/18/2018,48.11003,-1.68414,346
741,741,100045869,Arendalsuka (Arendal sentrum),8/12/2019,58.4597374,8.76477406,51
742,742,100046184,Chwarstnica,7/9/2018,53.20733794,14.61512751,315
743,743,100046493,ESPOCH001,7/3/2018,-1.67577,-78.64462,309
744,744,100046544,Regementsgatan,10/5/2018,55.43102287,13.83076211,51
745,745,100046689,Bilker Allee,8/6/2012,51.21074,6.771311,145
746,746,100046798,Alexandrastraße,8/10/2018,49.97315,9.15079,109
747,747,100047053,Münchener/ Ickeswarder Str,9/5/2018,51.17652,6.80926,255
748,748,100047054,Fleher Deich,8/21/2018,51.18775,6.77722,1
749,749,100047229,Bishop_Nord (6021) f(x),7/1/2018,45.496894,-73.5761508,175
750,750,100047279,Koblenzer Gesamt,8/6/2012,51.14898,6.88668,50
751,751,100047280,Oberkasseler Brücke,8/6/2012,51.23166,6.7632,1
752,752,100047281,Fleher Deich Rampe,8/6/2012,51.18834,6.77571,1
753,753,100047339,Cathcart_Est (6526),7/30/2019,45.50160741,-73.57055875,58
754,754,100047355,Ste.Catherine_Est (7834),8/21/2018,0,0,16
755,755,100047356,Kennedy_Est (7836),5/5/2019,36.07845,-94.16919,1
756,756,100047369,Argyle Street - Loaner,8/8/2018,0,0,13
757,757,100047459,Catherine/ Cathcart Ouest,7/18/2018,45.50151533,-73.57051814,90
758,758,100047467,McGill / Sainte-Catherine côté ouest,8/24/2018,45.50230809,-73.57212139,8
759,759,100047468,McGill / Maisonneuve côté est,8/24/2018,45.50295502,-73.57296844,1
760,760,100047475,McGill / Président-Kennedy côté ouest,8/24/2018,45.50366376,-73.57425516,7
761,761,100047476,Nowe Objezierze,9/5/2018,52.86478813,14.3609413,1
762,762,100047514,McGil / Cathcart côté est,8/24/2018,45.50164355,-73.5701871,38
763,763,100047517,McGill / Cathcart côté ouest,8/24/2018,45.5014939,-73.57056073,3
764,764,100047519,McGill / Sainte-Catherine côté est,8/24/2018,45.50215129,-73.57132402,2
765,765,100047523,McGill / Maisonneuve côté ouest,8/24/2018,45.50286559,-73.57339765,4
766,766,100047527,McGill / Président-Kennedy côté est,8/24/2018,45.50341751,-73.57455401,4
767,767,100047647,Praha - Podolí,9/17/2018,50.05949687,14.41919219,120
768,768,100047745,Connect the Crescent,9/20/2018,29.95085,-90.06567,98
769,769,100047999,A5123 The Racecourse - TTech Totem,1/8/2019,52.24666,-0.88273,254
770,770,100048274,Hamang – Sandvika,11/9/2018,59.89256517,10.51636226,275
771,771,100048275,Skytterdalen,11/9/2018,59.89861063,10.52916643,1
772,772,100048276,Holtekilen,11/8/2018,59.90116742,10.61013518,1
773,773,100048277,Lommedalsveien,11/7/2018,59.94616287,10.5051809,1
774,774,100048278,Gml. Lommedalsvei,11/8/2018,59.93052546,10.49542087,1
775,775,100048279,Brynsveien - Kolsås,11/8/2018,59.91559245,10.49958822,1
776,776,100048280,Haslum,11/1/2018,59.91993125,10.57808416,1
777,777,100048281,Kirkeveien/Bærumsveien,11/8/2018,59.91225997,10.56360911,1
778,778,100048282,Bjørnegårdssvingen,11/7/2018,59.9002907,10.49471094,1
779,779,100048329,Sandviksveien,10/21/2018,59.88734431,10.51981412,47
780,780,100048330,Kjørbo,10/21/2018,59.88642365,10.52365352,1
781,781,100048409,2600 blk,1/26/2019,49.26215806,-123.1384832,79
782,782,100048410,2700 blk,1/26/2019,49.26124084,-123.1387621,1
783,783,100048411,2400 blk,1/26/2019,49.26412898,-123.1388211,1
784,784,100048412,2500 blk,1/26/2019,49.26311377,-123.138451,1
785,785,100048413,2800 blk,1/26/2019,49.26024658,-123.1385368,1
786,786,100048414,3000 blk,1/26/2019,49.25842605,-123.1386387,1
787,787,100048415,3100 blk,1/26/2019,49.25723217,-123.138966,1
788,788,100048416,2900 blk,1/26/2019,49.25942735,-123.1388211,1
789,789,100048811,Ernst-Walz-Brücke Querschnitt,10/11/2018,49.40953403,8.676711154,395
790,790,100048812,Thedor-Heuss-Brücke Querschnitt,10/11/2018,49.4117917,8.692717007,1
791,791,100048813,Rohrbacher Straße Querschnitt,10/11/2018,49.3976824,8.689534723,1
792,792,100048814,Liebermannstraße,10/11/2018,49.3963274,8.688098472,1
793,793,100048863,Springorumtrasse,11/22/2018,51.46881,7.22925,49
794,794,100048864,Wittener Str. stadteinwärts,11/22/2018,51.47985,7.22454,1
795,795,100048865,Wittener Str. stadtauswärts,11/22/2018,51.47864,7.22597,1
796,796,100048878,Totem C-31,12/20/2018,41.33863022,2.099739049,13
797,797,100049071,Wittener Str. Gesamt,11/22/2018,51.47929181,7.225191441,193
798,798,100049119,SAN DONATO,4/20/2019,44.512313,11.386013,48
799,799,100049218,Sant Just,1/5/2019,41.37830359,2.080024083,99
800,800,100049358,Via Sabotino,12/18/2018,44.497062,11.322866,140
801,801,100049600,Totem Esplugues,2/15/2019,41.37740431,2.088721991,242
802,802,100049883,Schlierbacher Landstraße,2/1/2019,49.41470485,8.718395943,283
803,803,100049884,Kurfürstenanlage Nord,2/1/2019,49.4067,8.68863,1
804,804,100049885,Kurfürstenanlage Süd,2/1/2019,49.40642825,8.688607322,1
805,805,100049901,Ziegelhäuser Landstraße,2/1/2019,49.41925887,8.725964292,16
806,806,100050003,SPARE,3/1/2019,0,0,102
807,807,100050004,2100 blk,3/1/2019,49.26647788,-123.1383061,1
808,808,100050005,2300 blk,3/1/2019,49.2647665,-123.1382469,1
809,809,100050006,2200 blk,12/10/2018,49.26587929,-123.1385905,1
810,810,100050030,Ernst-Walz-Brücke West - alt,6/1/2014,49.41042582,8.676603857,24
811,811,100050626,Preikestolen,3/28/2019,58.98906047,6.185671533,596
812,812,100050631,RSW Osna Belm,4/29/2019,52.28016,8.05513,5
813,813,100050695,2300 EAST,1/1/2001,0,0,64
814,814,100050750,Kurfürstenanlage Querschnitt,1/1/2016,49.40648754,8.688466278,55
815,815,100050813,Josef-Murr-Weg,4/24/2019,47.21598,9.55113,63
816,816,100051614,Radschnellweg Landkreis Böblingen,6/1/2019,48.711602,9.081401,801
817,817,100051930,Rambla del Celler,5/22/2019,41.47103793,2.084553816,316
818,818,100051931,Camí de Can Gatxet,5/22/2019,41.46866638,2.069334984,1
819,819,100052416,Preikestolen,2/24/2019,58.98906047,6.185671533,485
820,820,100052421,Bradlaugh Fields,1/8/2019,52.2603163,-0.87002883,5
821,821,100052516,Caswell Road  A508 Kingsthorpe - TTech Totem ,4/24/2017,52.21928116,-0.872794084,95
822,822,100052519,A508 Kingsthorpe - TTech Totem,10/1/2018,52.26244661,-0.899832499,3
823,823,100052520,A428 Bedford Road - TTech Totem,10/1/2018,52.23273574,-0.883064925,1
824,824,100052521,Mare Fair - TTech Totem,1/8/2019,52.23684217,-0.904266695,1
825,825,100052521,Mare Fair - TTech Totem,1/8/2019,52.23684217,-0.904266695,0
826,826,100053451,Broadway & Promenade - Eco-Display Classic,6/5/2019,33.76911867,-118.1908664,930
827,827,100053565,Sarbinowo,7/23/2019,54.24560785,15.9280197,114
828,828,100053586,Oberbaumbrücke NEW,1/1/2016,52.50177512,13.44568888,21
829,829,100054158,Radschnellweg Böblingen/Sindelfingen – Stuttgart,5/30/2019,48.7116,9.0814,572
830,830,100054198,Radschnellweg Böblingen/Sindelfingen – Stuttgart,5/30/2019,48.7116,9.0814,40
831,831,100054198,Radschnellweg Böblingen/Sindelfingen – Stuttgart,5/30/2019,48.7116,9.0814,0
832,832,100115391,Argyle Street,7/1/2013,44.645866,-63.57397,61193
833,833,100115393,North Barrington Street,11/18/2013,44.64771,-63.57428,2
834,834,100115395,South Barrington,12/17/2013,44.641685,-63.571087,2
835,835,100117676,Helsehuset,5/9/2013,61.134438,10.440134,2281
836,836,100117677,Barometer Stationen,6/4/2013,55.87882388,12.85633634,1
837,837,100117678,Aarhus,5/28/2013,56.192417,10.185221,1
838,838,100117679,Portage Bridge Totem,4/22/2013,45.420258,-75.71219,1
839,839,100117680,Totem 01,11/1/2015,49.406723,8.69424,1
840,840,100117681,EB Market Totem,2/28/2013,37.776913,-122.41692,1
841,841,100117682,New counter 02,1/1/1900,0,0,1
842,842,100117683,Spokane St. Bridge Total,11/24/2013,47.57132761,-122.3493994,1
843,843,100117684,Cykelbarometer,6/12/2013,56.688667,16.322334,1
844,844,100117685,Schweizerhofquai Totem (604),9/12/2011,47.05418,8.310838,1
845,845,100117686,Strathmore Totem,10/18/2013,34.06864,-118.44598,1
846,846,100117687,Berliner Platz,7/18/2013,47.6197,7.65932,1
847,847,100117688,Eco-Totem _ 1,7/5/2013,69.96548,23.261234,1
848,848,100117689,Eco-Totem _ 2,11/19/2013,69.96787,23.369286,1
849,849,100117690,Jessheim,12/6/2013,60.143917,11.169752,1
850,850,100117691,Lillestrøm,12/16/2013,59.95491,11.039865,1
851,851,100117692,Tåsen,11/5/2013,59.9532,10.757,1
852,852,100117693,Alvim,2/17/2014,59.274498,11.082512,1
853,853,100117694,Jarmyrveien,10/8/2013,59.923824,10.611697,1
854,854,100117695,Kolbotn,12/11/2013,59.808533,10.80595,1
855,855,100117696,Helsfyr,11/4/2013,59.91367654,10.80230483,1
856,856,100117697,Borregårdsbakken,2/11/2014,59.279984,11.125977,1
857,857,100117698,Eco-Totem,9/10/2013,51.10531,-115.36724,1
858,858,100117699,UiT,5/19/2014,69.67943,18.971754,1
859,859,100117700,Jaklins Plass,5/19/2014,69.65265,18.960064,1
860,860,100117701,Contador Ciclista Reforma 222 - Ciudad de México,11/16/2013,19.429134,-99.162094,1
861,861,100117702,Nygaardsgate,10/18/2013,59.211754,10.938824,1
862,862,100117703,Totem ,10/24/2013,48.57406104,7.755221893,1
863,863,100117704,Speed counter,11/19/2013,49.139652,9.214609,1
864,864,100117705,Totem_Laurier,2/12/2013,45.5277722,-73.58883237,1
865,865,100117706,Ernst-Walz-Brücke,6/1/2014,49.40911,8.6766615,1
866,866,100117707,Barometer Kirchheim u. Teck,4/17/2014,48.64519,9.451567,1
867,867,100117708,Eco Totem,3/3/2014,59.370926,17.962162,1
868,868,100117709,Barometer Resecentrum,11/10/2014,59.85758337,17.64600223,1
869,869,100117710,Hamarvegen,8/22/2014,61.106728,10.47285,1
870,870,100117711,Barometer Kasernplan,6/4/2013,55.87140112,12.82958131,1
871,871,100117712,Eco-Totem 01,10/15/2014,47.266834,11.40494,1
872,872,100117713,Wiborg atrium,12/1/2014,59.22405,10.952996,1
873,873,100117714,Burrard/Cornwall (totem cabinet),6/3/2014,49.272476,-123.145454,1
874,874,100117715,Ringvegen,11/3/2014,60.78421,10.692967,1
875,875,100117716,Zelt 02,1/1/1900,0,0,1
876,876,100117717,Eco-Totem - SW Path @ Monroe St,10/9/2014,43.067913,-89.41238,1
877,877,100117718,Grange Road Totem,9/26/2014,53.28653,-6.2775555,1
878,878,100117719,Ansermet Totem,7/8/2014,46.193607,6.139822,1
879,879,100117720,Am Strande,10/1/2012,54.09152283,12.14942155,1
880,880,100117721,Bjeredsparken ,9/14/2014,55.70878,13.18425,1
881,881,100117722,Sölvegatan,11/11/2014,55.710903,13.202863,1
882,882,100117723,Venezia dir centro,2/20/2013,45.473816,9.2043085,1
883,883,100117724,Venezia dir Oberdan,2/17/2013,45.473984,9.204523,1
884,884,100117725,Eco-Totem 13th at Walnut,7/25/2014,40.01719387,-105.2783267,1
885,885,100117726,Bikeometer,3/19/2014,38.89910871,-77.07109065,1
886,886,100117727,Asker,11/26/2013,59.83363,10.43706,1
887,887,100117728,Mannesmann Ufer-Totem 01,11/1/2014,51.220154,6.7671213,1
888,888,100117729,Totem 01,12/15/2014,-34.583454,-58.39204,1
889,889,100117730,Galloping Goose Trail - Eco-Totem,12/17/2014,48.432613,-123.3782,1
890,890,100117731,Chauss�e de la Madeleine 880 - 881,9/3/2013,47.21172,-1.5529,1
891,891,100117732,Wonka_Totem,9/26/2013,50.040184,15.768374,1
892,892,100125419,Commerce Square,12/23/2010,47.21405,-1.55803,7687
893,893,100126835,Angers,8/19/2008,47.632772,2.738833,1416
894,894,100127652,Birkenlund - Engehaven (Arendal kommune),1/1/2019,58.488552,8.7886715,817
895,895,100127783,Calgary (CA),6/29/2015,51.044643,-114.073906,131
896,896,100128044,River Walk,10/15/2015,51.0501714,-114.0541501,261
897,897,100128045,Nose Creek at Bow River,10/16/2015,51.04688668,-114.0198607,1
898,898,100128046,Memorial Drive at Prince s Island,10/16/2015,51.05694245,-114.0664882,1
899,899,100128047,Memorial Drive at 19 St NW,10/15/2015,51.04897085,-114.1046078,1
900,900,100128048,Lindsay Park,10/15/2015,51.03300328,-114.0643532,1
901,901,100128053,Bilbao (ES),11/8/2015,43.26413,-2.9240992,5
902,902,100128055,Calgary_3 (CA),4/23/2015,51.04198,-114.08213,2
903,903,100128056,Barcelona (ES),5/16/2011,41.39436,2.1759484,1
904,904,100129897,Butler Trail,2/17/2016,30.27475183,-97.77071379,1841
905,905,100130631,Asker - sentrum,11/26/2013,59.83363,10.43706,734
906,906,100130632,Veitveit,9/24/2013,59.9457,10.8452,1
907,907,100130633,Helsfyr,11/4/2013,59.91367654,10.80230483,1
908,908,100130634,Mosseveien Oslo,10/4/2013,59.8845,10.7691,1
909,909,100130687,Tåsen,11/5/2013,59.9532,10.757,53
910,910,100130769,Calgary_2 (CA),7/10/2015,51.045746,-114.07067,82
911,911,100130795,Mexico_2 (MX),6/15/2016,19.406767,-99.17844,26
912,912,100130920,B90004 Boulder,3/8/2010,40.06877167,-105.2831325,125
913,913,100130922,B90023_US 36 Westminster,11/7/2013,39.867813,-105.05895,2
914,914,100130961,B90024_US 36 Broomfield,2/3/2014,39.902027,-105.08236,39
915,915,100131784,Mexico_3 (MX),6/15/2016,19.401382,-99.18488,823
916,916,100133221,90029 US 36 Boulder,7/26/2015,39.98334,-105.22938,1437
917,917,100133755,Espoonlahti,6/3/2016,60.174918,24.79997216,534
918,918,100133931,VW Lannion U-ZELT HD,8/6/2015,48.750861,-3.459971,176
919,919,100134303,Nose Hill Park - Retired,10/17/2016,51.11872533,-114.1270052,372
920,920,100134304,South Glenmore,10/13/2016,50.97577494,-114.0994951,1
921,921,100134305,Parkdale,10/13/2016,51.05547003,-114.1308413,1
922,922,100134306,North Glenmore,10/13/2016,50.98707432,-114.1254047,1
923,923,100136236,ZBT Arsenal (615),12/13/2016,47.03814058,8.299547643,1930
924,924,100136319,ZBT Kleinmatt (614),12/13/2016,47.04077957,8.306729119,83
925,925,100137034,Pablo Neruda con Olimpia,7/26/2016,-38.73991455,-72.6229949,715
926,926,100137035,Presidente Ibañez 2,1/27/2017,-41.45724,-72.91809,1
927,927,100137036,Presidente Ibañez 1,1/27/2017,-41.46298978,-72.92921134,1
928,928,100137037,Av. Norte Sur 2,11/21/2016,-41.40222,-72.9017,1
929,929,100137038,Av. Norte Sur,11/22/2016,-41.38462,-72.90844,1
930,930,100137039,Gabriela Mistral con Andes,8/22/2016,-38.72913,-72.62009,1
931,931,100137040,Gabriela Mistral con Recreo.,8/23/2016,-38.72843,-72.61454,1
932,932,100137041,Hochstetter con Pucon,7/27/2016,-38.72965,-72.61093,1
933,933,100137042,Hochstetter con B. O´Higgins ,7/27/2016,-38.73938,-72.61802,1
934,934,100137043,Pablo Neruda con J. Carrera ,7/26/2016,-38.73847,-72.62889,1
935,935,100137045,O´Higgins frente a Tottus (Sur),11/18/2016,-33.65681702,-70.91100697,2
936,936,100137046,O´Higgins frente a Tottus (Norte),11/18/2016,-33.65697884,-70.91102346,1
937,937,100137047,Manuel Rodríguez con Errázuriz,11/16/2016,-33.72906149,-70.73964519,1
938,938,100137048,V. Zorrillas con Av. Islon,10/24/2016,-29.8895,-71.23278,1
939,939,100137049,G. Marin con Monjitas,10/25/2016,-29.88047,-71.24572,1
940,940,100137050,Av. Peru con Viña del Mar,10/25/2016,-29.87275,-71.23606,1
941,941,100137051,Perez Zujovic Norte,4/27/2015,-23.59598,-70.39641,1
942,942,100137114,O´Higgins entre Topacio y J. Brancoli,11/18/2016,-33.67007271,-70.94049413,63
943,943,100137115,Rocca con Azolas,10/21/2016,-18.46417,-70.29175,1
944,944,100137116,Rocca con Santa Maria,10/21/2016,-18.46112,-70.29566,1
945,945,100137117,Neghme con Santa Maria,10/21/2016,-18.4378,-70.29484,1
946,946,100137118,Neghme con Linderos,10/21/2016,-18.43878,-70.28707,1
947,947,100137119,Santa Maria con Diego Portales,8/24/2016,-18.46944,-70.30351,1
948,948,100137120,Santa María con Rocca,8/25/2016,-18.46117,-70.29623,1
949,949,100137121,Arata con Neghme ,3/22/2016,-18.4382,-70.29501,1
950,950,100137481,Vilamoura_1 (PT),4/13/2017,37.0828052,-8.117742945,360
951,951,100137482,Vilamoura_2 (PT),4/13/2017,37.0774987,-8.116660011,1
952,952,100137787,Pasaje 19 entre calle 5 y O. Pacifio,12/14/2016,-36.80437,-73.10034,305
953,953,100137788,Desiderio G. Con C. Dittborn ,1/5/2017,-36.744709,-73.10043503,1
954,954,100137789,Lynch,3/15/2017,-37.47699,-72.34948,1
955,955,100137791,Manuel Rodriguez,3/17/2017,-36.81453,-73.04964,2
956,956,100138344,Inglewood Bird Sanctuary,5/11/2017,51.02954087,-114.0112109,553
957,957,100138638,River Walk,10/16/2015,51.05029238,-114.0546155,294
958,958,100139170,El Palomar frente a Santa Isabel,2/23/2017,-27.37937,-70.33159,532
959,959,100139171,El Palomar con Luis Flores,2/23/2017,-27.38672,-70.32711,1
960,960,100139172,O´Higgins,5/4/2017,-36.82626883,-73.04643958,1
961,961,100139173,Alto Horno,5/31/2017,-36.7446755,-73.10579331,1
962,962,100139581,Colipi 1,7/19/2017,-27.36909,-70.33398,408
963,963,100139582,Colipi 2,7/18/2017,-27.36622,-70.33119,1
964,964,100139583,Colipi 3,7/19/2017,-27.36216,-70.32688,1
965,965,100139584,Chacabuco 3,7/20/2017,-27.36114441,-70.32811527,1
966,966,100139585,Chacabuco 2,7/20/2017,-27.36516,-70.33171,1
967,967,100139586,Chacabuco 1,7/22/2017,-27.36881191,-70.33537543,1
968,968,100139981,Mopac at Barton Cr,8/16/2017,30.24305,-97.81009,395
969,969,100140222,Los Chiflones,7/10/2017,-36.9997,-73.16128,241
970,970,100140223,Los Robles con Los Notros,7/11/2017,-36.98585,-73.16257,1
971,971,100141793,Portage Bridge Totem,4/22/2013,45.420258,-75.71219,1570
972,972,100142221,Costanera con Kuzma Slavic ,11/23/2017,-53.1427389,-70.87807562,428
973,973,100142222,Costanera Manuel Bulnes,11/23/2017,-53.12879,-70.86629,1
974,974,100142223,Costanera Club Hipico,11/23/2017,-53.15201938,-70.8851704,1
975,975,100142550,Ongolmo con Barros Arana ,12/5/2017,-36.82398,-73.04347,327
976,976,100142551,Las Hortensias,12/5/2017,-36.75639,-73.09211,1
977,977,100142552,Roosevelt ,12/11/2017,-36.81987,-73.03554,1
978,978,100142926,Alonso de Ercilla con Frei Bonn,11/3/2017,-22.45163,-68.93871,374
979,979,100142927,Tocopilla Aldunate,10/26/2017,-22.45842,-68.93913,1
980,980,100142928,Mexico con Arturo Prat,11/3/2017,-22.44389,-68.93112,1
981,981,100142929,Mexico con Tocopilla,10/26/2017,-22.45568,-68.93301,1
982,982,100142930,Argentina con Vasco de Gama,10/26/2017,-22.45516823,-68.92985009,1
983,983,100142931,Argentina con Arturo Prat,10/26/2017,-22.44531,-68.9282,1
984,984,100142932,Alonso de Ercilla con Calle Concepción,12/21/2017,-22.453094,-68.926907,1
985,985,100142933,Vasco de Gama con Frei Bonn,12/21/2017,-22.455,-68.939,1
986,986,100142934,Vasco de Gama con Argentina,1/9/2018,-22.45454,-68.92958,1
987,987,100142935,X2H17123956,1/10/2018,0,0,1
988,988,100143814,10 Oriente con 14 Sur,1/17/2018,-35.44539643,-71.65446966,879
989,989,100143815,18 Oriente con 6 Sur,1/31/2018,-35.43572019,-71.64322166,1
990,990,100143816,18 Oriente con 2 Norte,1/31/2018,-35.42797,-71.64006,1
991,991,100143886,Aldunate con J. A. Rios,1/10/2018,-22.45984831,-68.93875731,70
992,992,100143887,Vasco de Gama con Argentina,1/10/2018,-22.45454,-68.92958,1
993,993,100143888,Los Confines con Colima,12/14/2017,-37.7938514,-72.69539039,1
994,994,100144043,Gral. Oscar Bonilla P. Graneros,2/21/2018,-37.80110331,-72.68679567,155
995,995,100144044,Rancagua con Ocalindo,2/22/2018,-37.81218042,-72.69999545,1
996,996,100144045,Antofagasta con Ocalind,2/21/2018,-37.81352,-72.69546,1
997,997,100144361,Kaukari Sur,3/21/2018,-27.37093,-70.33659,316
998,998,100144362,Kaukari Norte,3/22/2018,-27.37028,-70.33555,1
999,999,100145944,Javiera Carrera con Simon Bolivar,5/30/2018,-38.74931,-72.63667,1582
1000,1000,100147259,Rio Maule,9/28/2017,-36.75809,-73.09506,1315
1001,1001,100147371,Argyle Street - Loaner,8/8/2018,0,0,112
1002,1002,100148013,Prague (CZ),9/14/2018,50.05949687,14.41919219,642
1003,1003,100148967,Regimiento ,6/13/2018,-41.46663,-72.90481,954
1004,1004,100149521,Manuel Antonio Matta 1,9/23/2016,-23.65265,-70.39954,554
1005,1005,100149522,Grecia con Diaz Gana,4/5/2018,-23.66408,-70.40385,1
1006,1006,100149523,Av Costanera 5538,12/4/2018,-29.94460815,-71.29023343,1
1007,1007,100149524,Av del Mar sector Faro,12/4/2018,-29.90943,-71.27452,1
1008,1008,100149525,G. Gonzales con Huanhualí,12/5/2018,-29.91673,-71.2475,1
1009,1009,100149526,J. Cisternas con San Joaquin ,12/5/2018,-29.91746,-71.24475,1
1010,1010,100149527,J. Cisternas con Cerro Alegre,12/5/2018,-29.94974,-71.26214,1
1011,1011,100149528,Salvador Allende con Regimiento Arica,12/5/2018,-29.9557,-71.26506,1
1012,1012,100149529,G. Gonzales con Cuatro Esquinas  ,12/5/2018,-29.93476,-71.25491,1
1013,1013,100149902,NUEVA IMPERIAL,12/4/2015,-36.80049,-73.084236,373
1014,1014,100150031,Heidelberg Ernst-Walz-Brücke Querschnitt,11/11/2018,49.40953403,8.676711154,129
1015,1015,100150061,Nahuelbuta,1/15/2019,-38.71787,-72.5575,30
1016,1016,100150062,Pasaje Padre Anselmo,1/8/2019,-38.76998929,-72.58522379,1
1017,1017,100150063,Av. Huichahue,1/8/2019,-38.7742351,-72.58417396,1
1018,1018,100150064,Coñoepan,1/8/2019,-38.76716,-72.5995,1
1019,1019,100150065,Las Bandurrias,1/8/2019,-38.7767,-72.59296,1
1020,1020,100150505,Av. del Mar con Cuatro Esquinas,2/12/2019,-29.9260496,-71.2784694,440
1021,1021,100151433,Ocalindo 1015,1/30/2019,-37.81325778,-72.69769763,928
1022,1022,100152481,Arturo Prat esquina A. Bello,5/15/2019,-38.74164314,-72.59121945,1048
1023,1023,100152482,Balmaceda esquina Prieto Nte.,5/15/2019,-38.73166,-72.59865,1
1024,1024,100152483,Francisco S. frente a Pablo VI,5/15/2019,-38.74824134,-72.61288372,1
1025,1025,100153371,Kaukari con Henriquez,6/11/2019,-27.37383,-70.3317,888
1026,1026,100154114,Cabello,3/22/2017,-34.63447274,-71.37013713,743
1027,1027,100154116,Alameda,5/25/2017,-34.16398,-70.74973,2
,,,,,,,
