,Unnamed: 0,CounterID,CounterTitle,Date,Lat,Long,Unnamed: 0.1,Unnamed: 0.1.1,Unnamed: 0.1.1.1,Unnamed: 0.1.1.1.1,Unnamed: 0.1.1.1.1.1,Unnamed: 0.1.1.1.1.1.1,Unnamed: 0.1.1.1.1.1.1.1
0,0,100010066,Rocky Mountain Legacy Trail – Canmore Trailhead,2010-08-06,51.105335,-115.3673,0.0,0.0,0.0,0.0,0.0,0.0,465.0
1,1,100010113,Mosseveien,2013-10-25,59.21660600000001,10.92417,1.0,1.0,1.0,1.0,1.0,1.0,466.0
2,2,100010223,North Barrington Street,2013-11-19,44.64771,-63.57428,2.0,2.0,2.0,2.0,2.0,2.0,467.0
3,3,100010264,Borregårdsbakken,2014-02-11,59.279984,11.125977,3.0,3.0,3.0,3.0,3.0,3.0,468.0
4,4,100010265,Alvim,2014-02-01,59.274498,11.082512,4.0,4.0,4.0,4.0,4.0,4.0,469.0
5,5,100010268,Tåsen,2013-11-05,59.9532,10.757,5.0,5.0,5.0,5.0,5.0,5.0,470.0
6,6,100010269,Helsfyr,2013-11-01,59.91367654,10.80230483,6.0,6.0,6.0,6.0,6.0,6.0,471.0
7,7,100010270,Jessheim sentrum,2013-12-06,60.143917,11.169752,7.0,7.0,7.0,7.0,7.0,7.0,472.0
8,8,100010271,Skedsmo Rådhus,2013-12-16,59.95491,11.039865,8.0,8.0,8.0,8.0,8.0,8.0,473.0
9,9,100010272,Asker stasjon,2013-11-18,59.83363000000001,10.43706,9.0,9.0,9.0,9.0,9.0,9.0,474.0
10,10,100010273,Skiveien Kolbotn,2013-12-11,59.808533,10.80595,10.0,10.0,10.0,10.0,10.0,10.0,475.0
11,11,100010274,Jarmyra,2013-10-08,59.923824,10.611697,11.0,11.0,11.0,11.0,11.0,11.0,476.0
12,12,100010337,Ooppera,2013-10-25,60.18196999999999,24.93145,12.0,12.0,12.0,12.0,12.0,12.0,477.0
13,13,100010638,MIGUEL CLARO,2015-07-28,-33.439743,-70.61783,13.0,13.0,13.0,13.0,13.0,13.0,478.0
14,14,100010640,ANTONIO VARAS,2015-03-29,-33.440807,-70.61324,14.0,14.0,14.0,14.0,14.0,14.0,479.0
15,15,100010641,MARIN,2015-03-29,-33.444214,-70.62786,15.0,15.0,15.0,15.0,15.0,15.0,480.0
16,16,100010642,RICARDO LYON,2015-03-29,-33.427055,-70.6079,16.0,16.0,16.0,16.0,16.0,16.0,481.0
17,17,100010646,ANDRES BELLO,2015-03-29,-33.424118,-70.62054,17.0,17.0,17.0,17.0,17.0,17.0,482.0
18,18,100010651,Transcona Trail,2013-10-11,49.903347,-97.023636,18.0,18.0,18.0,18.0,18.0,18.0,483.0
19,19,100010652,Bishop Grandin 2,2013-10-14,49.8277,-97.12732,19.0,19.0,19.0,19.0,19.0,19.0,484.0
20,20,100010653,Yellow Ribbon Greenway,2013-10-15,49.88936,-97.25276,20.0,20.0,20.0,20.0,20.0,20.0,485.0
21,21,100010654,BG01Zelt,2013-10-15,49.820908,-97.14479,21.0,21.0,21.0,21.0,21.0,21.0,486.0
22,22,100010655,Northeast Pioneer 2,2013-10-09,49.92504,-97.07647,22.0,22.0,22.0,22.0,22.0,22.0,487.0
23,23,100010656,Northeast Pioneer 3,2013-10-08,49.93722,-97.06102,23.0,23.0,23.0,23.0,23.0,23.0,488.0
24,24,100010657,Northeast Pioneer 1,2013-10-09,49.914238,-97.0902,24.0,24.0,24.0,24.0,24.0,24.0,489.0
25,25,100010658,BG03Zelt,2013-10-14,49.83904,-97.08915,25.0,25.0,25.0,25.0,25.0,25.0,490.0
26,26,100010659,Harte Trail 2,2013-10-16,49.84438,-97.25629,26.0,26.0,26.0,26.0,26.0,26.0,491.0
27,27,100010660,Harte Trail 1,2013-10-16,49.846264,-97.29439,27.0,27.0,27.0,27.0,27.0,27.0,492.0
28,28,100011008,Murchie's,2013-11-22,48.42494600000001,-123.36785,28.0,28.0,28.0,28.0,28.0,28.0,493.0
29,29,100011009,Market Square,2013-11-22,48.427856,-123.36888,29.0,29.0,29.0,29.0,29.0,29.0,494.0
30,30,100011010,TD,2013-11-21,48.424362,-123.36569,30.0,30.0,30.0,30.0,30.0,30.0,495.0
31,31,100011422,Hemlock,2013-11-13,45.44655456,-75.66911306,31.0,31.0,31.0,31.0,31.0,31.0,496.0
32,32,100011427,Sherbourne SB at Gerrard,2012-12-09,43.66185,-79.372635,32.0,32.0,32.0,32.0,32.0,32.0,497.0
33,33,100011428,Sherbourne NB at Gerrard,2012-12-03,43.66707,-79.37465999999998,33.0,33.0,33.0,33.0,33.0,33.0,498.0
34,34,100011429,Sherbourne NB at Wellesley,2012-12-03,43.66769,-79.37482,34.0,34.0,34.0,34.0,34.0,34.0,499.0
35,35,100011605,Mühlendamm-Flußbad,2014-01-01,54.08378199999999,12.153115,35.0,35.0,35.0,35.0,35.0,35.0,500.0
36,36,100011619,WS,2013-09-15,54.3971,18.569721,36.0,36.0,36.0,36.0,36.0,36.0,501.0
37,37,100011631,Kirchfeldstraße,2013-12-11,51.21246,6.770759599999999,37.0,37.0,37.0,37.0,37.0,37.0,502.0
38,38,100011632,Lohauser Deich,2013-12-09,51.2767,6.7141100000000025,38.0,38.0,38.0,38.0,38.0,38.0,503.0
39,39,100011637,Christophstr.,2014-12-18,51.19622800000001,6.7965399999999985,39.0,39.0,39.0,39.0,39.0,39.0,504.0
40,40,100011747,Saint-Antoine,2013-10-22,45.50625,-73.557785,40.0,40.0,40.0,40.0,40.0,40.0,505.0
41,41,100011748,René-Lévesque,2013-10-29,45.516968,-73.55404,41.0,41.0,41.0,41.0,41.0,41.0,506.0
42,42,100011749,Viger,2013-10-30,45.505943,-73.56026999999997,42.0,42.0,42.0,42.0,42.0,42.0,507.0
43,43,100011783,Maisonneuve_3,2013-11-02,45.470493,-73.609566,43.0,43.0,43.0,43.0,43.0,43.0,508.0
44,44,100011851,Veitvet,2013-09-24,59.9457,10.8452,44.0,44.0,44.0,44.0,44.0,44.0,509.0
45,45,100011852,Mosseveien,2013-10-04,59.8845,10.7691,45.0,45.0,45.0,45.0,45.0,45.0,510.0
46,46,100011853,Nygaardsgata,2013-09-22,59.211754000000006,10.938824,46.0,46.0,46.0,46.0,46.0,46.0,511.0
47,47,100011854,Mosseveien,2013-10-25,59.21660600000001,10.92417,47.0,47.0,47.0,47.0,47.0,47.0,512.0
48,48,100011934,Spring Garden - South,2016-04-01,44.642586,-63.57839,48.0,48.0,48.0,48.0,48.0,48.0,513.0
49,49,100011935,Spring Garden - North,2014-01-25,44.643093,-63.577305,49.0,49.0,49.0,49.0,49.0,49.0,514.0
50,50,100011984,Stoltzekleiven,2014-02-06,60.41202,5.3348384000000015,50.0,50.0,50.0,50.0,50.0,50.0,515.0
51,51,100011985,Ernst-Walz-Brücke,2014-06-01,49.40911,8.6766615,51.0,51.0,51.0,51.0,51.0,51.0,516.0
52,52,100012015,South Barrington,2013-12-18,44.641685,-63.571087,52.0,52.0,52.0,52.0,52.0,52.0,517.0
53,53,100012016,George Street,2013-12-18,44.648937,-63.573128,53.0,53.0,53.0,53.0,53.0,53.0,518.0
54,54,100012079,Cawston St corridor,2014-04-12,49.89173,-119.48883,54.0,54.0,54.0,54.0,54.0,54.0,519.0
55,55,100012161,Plöck,2015-11-01,49.40913,8.698542999999999,55.0,55.0,55.0,55.0,55.0,55.0,520.0
56,56,100012217,Rachel / Hôtel de Ville,2013-10-16,45.51968400000001,-73.58022,56.0,56.0,56.0,56.0,56.0,56.0,521.0
57,57,100012218,Boyer,2013-11-01,45.53365,-73.59459,57.0,57.0,57.0,57.0,57.0,57.0,522.0
58,58,100012285,North Upper Water,2014-01-19,44.649654,-63.573208,58.0,58.0,58.0,58.0,58.0,58.0,523.0
59,59,100012286,South Lower Water,2014-01-20,44.643673,-63.56954200000001,59.0,59.0,59.0,59.0,59.0,59.0,524.0
60,60,100012340,Bygdetunet,2017-01-23,59.80585338,10.2990891,60.0,60.0,60.0,60.0,60.0,60.0,525.0
61,61,100012585,Argyle Street,2013-12-03,44.645866,-63.57397,61.0,61.0,61.0,61.0,61.0,61.0,526.0
62,62,100012608,Gaisbergstraße,2015-11-01,49.406723,8.694239999999999,62.0,62.0,62.0,62.0,62.0,62.0,527.0
63,63,100012754,Urban Post 01,2018-05-07,48.75737460000001,-3.4634812000000004,63.0,63.0,63.0,63.0,63.0,63.0,528.0
64,64,100012756,Urban Post 02,2014-02-04,38.82266928,-104.8384025,64.0,64.0,64.0,64.0,64.0,64.0,529.0
65,65,100012757,Ute Valley PineCliff,2014-04-24,38.911034,-104.84947,65.0,65.0,65.0,65.0,65.0,65.0,530.0
66,66,100012758,Ute Valley Main Parking Lot,2014-04-23,38.924854,-104.85724,66.0,66.0,66.0,66.0,66.0,66.0,531.0
67,67,100012785,Frankton Track,2014-07-01,-45.034714,168.67975,67.0,67.0,67.0,67.0,67.0,67.0,532.0
68,68,100012787,Multi 01,2014-05-07,38.84797,-104.82859,68.0,68.0,68.0,68.0,68.0,68.0,533.0
69,69,100012893,Arlington Key Bridge - Bicycle Counts,2011-08-10,0.0,0.0,69.0,69.0,69.0,69.0,69.0,69.0,534.0
70,70,100013031,Hamarvegen,2014-08-22,61.106728,10.47285,70.0,70.0,70.0,70.0,70.0,70.0,535.0
71,71,100013034,Mannheimer Straße,2015-11-01,49.4118,8.659139999999999,71.0,71.0,71.0,71.0,71.0,71.0,536.0
72,72,100013099,Ped Bridge 1,2014-05-20,44.64919151,-63.5712473,72.0,72.0,72.0,72.0,72.0,72.0,537.0
73,73,100013436,Sherbourne SB at  Wellesley,2012-12-03,43.66123,-79.372215,73.0,73.0,73.0,73.0,73.0,73.0,538.0
74,74,100013460,NCC Alexandra Bridge Cycle Track,2009-06-05,45.429188,-75.70199000000002,74.0,74.0,74.0,74.0,74.0,74.0,539.0
75,75,100013524,Wiborg atrium,2014-12-01,59.22405,10.952996,75.0,75.0,75.0,75.0,75.0,75.0,540.0
76,76,100013678,Dovrefjell 1-Grønbakken,2014-06-13,62.26882,9.59703,76.0,76.0,76.0,76.0,76.0,76.0,541.0
77,77,100013679,Dovrefjell 2 vårstigen,2014-06-13,62.36166,9.64761,77.0,77.0,77.0,77.0,77.0,77.0,542.0
78,78,100013680,Rennebu-Voll,2014-06-18,62.81606,9.97633,78.0,78.0,78.0,78.0,78.0,78.0,543.0
79,79,100013681,Eidsvoll,2015-06-01,60.29821,11.18506,79.0,79.0,79.0,79.0,79.0,79.0,544.0
80,80,100013682,Trondheim-Kastberga,2014-05-09,63.36119,10.30233,80.0,80.0,80.0,80.0,80.0,80.0,545.0
81,81,100013683,Orkanger-Svorkmo,2014-07-15,63.18604000000001,9.82848,81.0,81.0,81.0,81.0,81.0,81.0,546.0
82,82,100013684,Hamar- Prøysenskogen,2014-05-27,60.9172,10.84115,82.0,82.0,82.0,82.0,82.0,82.0,547.0
83,83,100013685,Granavollen- Kittelsrud,2014-05-09,60.49596999999999,10.59812,83.0,83.0,83.0,83.0,83.0,83.0,548.0
84,84,100013686,Gudbrandsdalen-Øyer,2014-05-28,61.28738000000001,10.40014,84.0,84.0,84.0,84.0,84.0,84.0,549.0
85,85,100013687,Stiklestad-Munkeby,2014-05-09,63.74973000000001,11.43783,85.0,85.0,85.0,85.0,85.0,85.0,550.0
86,86,100013732,König-Karls-Brücke,2012-07-01,48.798843,9.209901,86.0,86.0,86.0,86.0,86.0,86.0,551.0
87,87,100013755,Escondido Inland Rail Trail EB & WB - Ped,2014-02-05,33.1198,-117.090904,87.0,87.0,87.0,87.0,87.0,87.0,552.0
88,88,100013756,San Marcos Inland Rail Trail EB & WB - Ped,2014-02-04,33.146725,-117.18393,88.0,88.0,88.0,88.0,88.0,88.0,553.0
89,89,100013757,Oceanside SLR River Trail EB & WB - Ped,2014-03-05,33.20438,-117.38639,89.0,89.0,89.0,89.0,89.0,89.0,554.0
90,90,100013758,SD River Bike Path EB & WB - Bike,2015-02-09,32.760433,-117.20149,90.0,90.0,90.0,90.0,90.0,90.0,555.0
91,91,100013759,Coronado Bayshore Bikeway NB & SB - Ped,2014-10-29,32.68912,-117.16978,91.0,91.0,91.0,91.0,91.0,91.0,556.0
92,92,100013760,SD Harbor Drive Multi-Use Path EB & WB - Ped,2014-01-05,32.72778,-117.18244,92.0,92.0,92.0,92.0,92.0,92.0,557.0
93,93,100013761,Chula Vista Bayshore Bikeway NB & SB - Ped,2012-02-07,32.641544,-117.10147,93.0,93.0,93.0,93.0,93.0,93.0,558.0
94,94,100013817,Peace Bridge,2014-04-23,51.05356,-114.07836,94.0,94.0,94.0,94.0,94.0,94.0,559.0
95,95,100013833,Old Lower Shotover River Track,2014-07-01,-44.99658,168.75781,95.0,95.0,95.0,95.0,95.0,95.0,560.0
96,96,100013834,Kelvin Peninsula New,2014-07-01,-45.03083,168.70834,96.0,96.0,96.0,96.0,96.0,96.0,561.0
97,97,100013835,Riverside Road New,2014-07-01,-45.03185,168.7432,97.0,97.0,97.0,97.0,97.0,97.0,562.0
98,98,100013990,Waterfront Walkway,2014-06-26,49.89629,-119.49989,98.0,98.0,98.0,98.0,98.0,98.0,563.0
99,99,100013992,City Park Multi,2013-12-01,49.881157,-119.50341,99.0,99.0,99.0,99.0,99.0,99.0,564.0
100,100,100013994,Bernard Ave south sidewalk,2014-07-18,49.886208,-119.48899,100.0,100.0,100.0,100.0,100.0,100.0,565.0
101,101,100013995,Bernard Ave north sidewalk,2013-09-14,49.88634215,-119.4887544,101.0,101.0,101.0,101.0,101.0,101.0,566.0
102,102,100014077,Oceanside SLR River Trail EB & WB - Bike,2014-03-04,33.203285,-117.38743999999998,102.0,102.0,102.0,102.0,102.0,102.0,567.0
103,103,100014096,Imperial Beach Bayshore Bikeway EB & WB,2014-05-16,32.589554,-117.11067,103.0,103.0,103.0,103.0,103.0,103.0,568.0
104,104,100014228,Sunset Dr N of Brandts Creek Crosswalk,2013-05-21,49.89666,-119.49852,104.0,104.0,104.0,104.0,104.0,104.0,569.0
105,105,100014230,Bennett Bridge Walkway,2013-08-26,49.880573,-119.50381000000002,105.0,105.0,105.0,105.0,105.0,105.0,570.0
106,106,100014231,Abbott St Corridor,2013-05-27,49.87799,-119.49688,106.0,106.0,106.0,106.0,106.0,106.0,571.0
107,107,100014511,FR2 Güterbahnradweg / Ferdinand-Weiß-Straße - Radfahrende im Querschnitt,2014-08-01,47.998592,7.822081599999999,107.0,107.0,107.0,107.0,107.0,107.0,572.0
108,108,100014557,Tverrløypa Nybu,2015-06-08,61.115067,10.48515,108.0,108.0,108.0,108.0,108.0,108.0,573.0
109,109,100014585,FR1 Dreisamradweg / Hindenburgstraße - Radfahrende im Querschnitt,2014-08-01,47.99054,7.862301299999999,109.0,109.0,109.0,109.0,109.0,109.0,574.0
110,110,100014631,Coastal Community,2014-10-09,48.424526,-123.36333,110.0,110.0,110.0,110.0,110.0,110.0,575.0
111,111,100014632,Friends of Bears,2014-10-10,48.426754,-123.36506,111.0,111.0,111.0,111.0,111.0,111.0,576.0
112,112,100014633,Monk Office,2014-10-11,48.424416,-123.3625,112.0,112.0,112.0,112.0,112.0,112.0,577.0
113,113,100014670,Village Gaulois : Combo2,2014-07-04,48.78507632,-3.52609939,113.0,113.0,113.0,113.0,113.0,113.0,578.0
114,114,100014679,Ylisoutajan silta,2014-07-03,62.59422634,29.75747177,114.0,114.0,114.0,114.0,114.0,114.0,579.0
115,115,100015128,City of Boulder - 13th at Walnut,2014-08-25,40.01719387,-105.2783267,115.0,115.0,115.0,115.0,115.0,115.0,580.0
116,116,100015266,Gilhusodden,2014-08-04,59.74693004,10.26713487,116.0,116.0,116.0,116.0,116.0,116.0,581.0
117,117,100015388,CITIX,2014-09-05,44.648663,-63.57089200000001,117.0,117.0,117.0,117.0,117.0,117.0,582.0
118,118,100015584,Portsmouth Road,2001-01-01,0.0,0.0,118.0,118.0,118.0,118.0,118.0,118.0,583.0
119,119,100015585,Horsefair,2001-01-01,0.0,0.0,119.0,119.0,119.0,119.0,119.0,119.0,584.0
120,120,100015586,Marsh Lane,2001-01-01,0.0,0.0,120.0,120.0,120.0,120.0,120.0,120.0,585.0
121,121,100015729,Cherry Street,2014-08-25,43.44645,-80.51071,121.0,121.0,121.0,121.0,121.0,121.0,586.0
122,122,100015778,Morven Ferry Rd Intersection,2014-07-01,-44.992813,168.85516,122.0,122.0,122.0,122.0,122.0,122.0,587.0
123,123,100015779,Swain Bridge,2014-07-01,-44.96687,168.85442,123.0,123.0,123.0,123.0,123.0,123.0,588.0
124,124,100015780,Speargrass Flat Road,2014-07-01,-44.960773,168.80653,124.0,124.0,124.0,124.0,124.0,124.0,589.0
125,125,100015781,Billies Bridge,2014-07-01,-45.0038,168.80299,125.0,125.0,125.0,125.0,125.0,125.0,590.0
126,126,100016107,Lauttasaarentie,2014-10-15,60.16141500000001,24.893135,126.0,126.0,126.0,126.0,126.0,126.0,591.0
127,127,100016151,George Street,2014-09-15,44.64887,-63.57333000000001,127.0,127.0,127.0,127.0,127.0,127.0,592.0
128,128,100016157,Monolittvn ved Frognerparken,2014-11-05,59.92944,10.695102,128.0,128.0,128.0,128.0,128.0,128.0,593.0
129,129,100016158,Østensjøvn ved Brynseng,2014-10-16,59.9091,10.8146,129.0,129.0,129.0,129.0,129.0,129.0,594.0
130,130,100016159,Ullevålsvn 19,2014-10-28,59.92075,10.74236,130.0,130.0,130.0,130.0,130.0,130.0,595.0
131,131,100016160,Maridalsvn nord for Fredensborgvn,2014-10-08,59.92314,10.75075,131.0,131.0,131.0,131.0,131.0,131.0,596.0
132,132,100016161,Ekebergvn 160,2014-10-29,59.87886,10.78758,132.0,132.0,132.0,132.0,132.0,132.0,597.0
133,133,100016261,Rocky Mountain,2014-10-11,48.42377000000001,-123.368,133.0,133.0,133.0,133.0,133.0,133.0,598.0
134,134,100016262,Canada Post,2014-10-11,48.426178,-123.3643,134.0,134.0,134.0,134.0,134.0,134.0,599.0
135,135,100016421,Moss-Mosskogen,2014-11-26,59.4562,10.67886,135.0,135.0,135.0,135.0,135.0,135.0,600.0
136,136,100016422,Moss-RyggeTelemarkslund-Ekeby,2014-11-27,59.38752,10.66918,136.0,136.0,136.0,136.0,136.0,136.0,601.0
137,137,100016424,Mannesmann Ufer-Totem 01,2014-10-19,51.220154,6.7671213,137.0,137.0,137.0,137.0,137.0,137.0,602.0
138,138,100016667,Aleksanterinkatu,2014-10-30,60.168934,24.94585,138.0,138.0,138.0,138.0,138.0,138.0,603.0
139,139,100016669,Vanha Ylioppilastalo,2014-10-30,60.16891,24.940344,139.0,139.0,139.0,139.0,139.0,139.0,604.0
140,140,100016673,Forumin tunneli,2014-10-30,60.169228,24.938232,140.0,140.0,140.0,140.0,140.0,140.0,605.0
141,141,100016754,"Madison, WI – Eco-Totem on the Southwest Path at Monroe Street",2014-10-06,43.067913,-89.41238,141.0,141.0,141.0,141.0,141.0,141.0,606.0
142,142,100016786,Chr Michelsens gt nordside,2014-10-13,59.92886,10.77053,142.0,142.0,142.0,142.0,142.0,142.0,607.0
143,143,100016789,Chr Michelsens gt sydside,2014-10-11,59.92863000000001,10.7702,143.0,143.0,143.0,143.0,143.0,143.0,608.0
144,144,100016790,Maridalsvn ved Carl Kjelsens vei,2014-10-07,59.9547,10.76124,144.0,144.0,144.0,144.0,144.0,144.0,609.0
145,145,100016795,St Georges Road,2015-04-16,-37.775917,144.98993000000004,145.0,145.0,145.0,145.0,145.0,145.0,610.0
146,146,100016888,Capital Crescent Trail #1,2014-11-13,38.9795,-77.09676,146.0,146.0,146.0,146.0,146.0,146.0,611.0
147,147,100016908,Facultad de Derecho,2014-12-15,-34.583454,-58.39204,147.0,147.0,147.0,147.0,147.0,147.0,612.0
148,148,100016909,Shoal Creek,2014-10-31,30.308067,-97.74795,148.0,148.0,148.0,148.0,148.0,148.0,613.0
149,149,100016910,Duval,2014-10-30,30.29499,-97.73214,149.0,149.0,149.0,149.0,149.0,149.0,614.0
150,150,100016911,Manor,2014-11-01,30.284151,-97.719925,150.0,150.0,150.0,150.0,150.0,150.0,615.0
151,151,100016912,Guadalupe,2015-02-28,30.28419,-97.74187,151.0,151.0,151.0,151.0,151.0,151.0,616.0
152,152,100016914,S 1st St,2014-11-01,30.26187,-97.7483,152.0,152.0,152.0,152.0,152.0,152.0,617.0
153,153,100016915,S 1st St 2,2014-11-01,30.26185,-97.74842,153.0,153.0,153.0,153.0,153.0,153.0,618.0
154,154,100017105,Leon Creek at Prue Road,2014-11-17,29.541576,-98.63145,154.0,154.0,154.0,154.0,154.0,154.0,619.0
155,155,100017106,Salado Creek at Blanco Road,2014-11-18,29.563576,-98.51931,155.0,155.0,155.0,155.0,155.0,155.0,620.0
156,156,100017127,Argyle Street,2013-12-06,44.646038,-63.574127,156.0,156.0,156.0,156.0,156.0,156.0,621.0
157,157,100017151,Churchill @ Byron,2014-10-20,45.38968877,-75.75237469,157.0,157.0,157.0,157.0,157.0,157.0,622.0
158,158,100017181,7 Street South Cycle Track,2014-12-11,51.050327,-114.0784,158.0,158.0,158.0,158.0,158.0,158.0,623.0
159,159,100017341,W'münde Wetterwarte,2014-11-25,54.17664,12.05835,159.0,159.0,159.0,159.0,159.0,159.0,624.0
160,160,100017523,Saint-Urbain,2014-11-08,45.5193951,-73.58866311,160.0,160.0,160.0,160.0,160.0,160.0,625.0
161,161,100017789,Hippodrome (chemin de halage),2015-01-19,45.76754,4.908551,161.0,161.0,161.0,161.0,161.0,161.0,626.0
162,162,100017799,Holmenkollen Nasjonalanlegg,2014-12-08,59.96497,10.669804,162.0,162.0,162.0,162.0,162.0,162.0,627.0
163,163,100017862,Taubenheim Str. von Kursaal,2016-12-19,48.80535826,9.226311009,163.0,163.0,163.0,163.0,163.0,163.0,628.0
164,164,100017863,Waiblinger Str. Ri. Fellbach,2016-12-19,48.8053201,9.2266209,164.0,164.0,164.0,164.0,164.0,164.0,629.0
165,165,100017946,South Keys Bridge,2014-11-23,45.35406,-75.65884399999999,165.0,165.0,165.0,165.0,165.0,165.0,630.0
166,166,100018241,Rustadsaga,2014-12-10,59.872997,10.856118,166.0,166.0,166.0,166.0,166.0,166.0,631.0
167,167,100018242,Sognsvann,2014-12-10,59.968693,10.731999,167.0,167.0,167.0,167.0,167.0,167.0,632.0
168,168,100018264,New counter 01,1900-01-01,0.0,0.0,168.0,168.0,168.0,168.0,168.0,168.0,633.0
169,169,100018267,600 Penn,2016-04-15,40.442806,-80.00173000000002,169.0,169.0,169.0,169.0,169.0,169.0,634.0
170,170,100018268,900 Penn,2016-04-15,40.444187,-79.99679,170.0,170.0,170.0,170.0,170.0,170.0,635.0
171,171,100018269,1200 Penn,2016-04-15,40.44608,-79.991714,171.0,171.0,171.0,171.0,171.0,171.0,636.0
172,172,100018487,Peace Bridge Cyclist Counts,2014-04-24,51.05354000000001,-114.07838,172.0,172.0,172.0,172.0,172.0,172.0,637.0
173,173,100018531,South Barrington Temp,2014-11-30,44.64100000000001,-63.57,173.0,173.0,173.0,173.0,173.0,173.0,638.0
174,174,100019208,Imperial Beach Bayshore Bikeway EB & WB - Bike,2014-05-16,32.589527000000004,-117.1102,174.0,174.0,174.0,174.0,174.0,174.0,639.0
175,175,100019209,National City Sweetwater Bike Path EB & WB - Bike,2012-09-24,32.657387,-117.071625,175.0,175.0,175.0,175.0,175.0,175.0,640.0
176,176,100019210,National City Sweetwater Bike Path EB & WB - Ped,2012-09-24,32.65724,-117.07013,176.0,176.0,176.0,176.0,176.0,176.0,641.0
177,177,100019211,Imperial Beach Bayshore Bikeway EB & WB - Ped,2014-05-16,32.589455,-117.11242,177.0,177.0,177.0,177.0,177.0,177.0,642.0
178,178,100019274,SD Sorrento Valley Rd NB & SB - Bike,2013-11-08,32.91741,-117.23814,178.0,178.0,178.0,178.0,178.0,178.0,643.0
179,179,100019275,Del Mar Camino Del Mar - Ped Eastside,2012-02-09,0.0,0.0,179.0,179.0,179.0,179.0,179.0,179.0,644.0
180,180,100019325,Loaner1537,2015-02-24,36.008217,-95.93165,180.0,180.0,180.0,180.0,180.0,180.0,645.0
181,181,100019385,Coventry Bridge,2015-02-09,45.41887,-75.652855,181.0,181.0,181.0,181.0,181.0,181.0,646.0
182,182,100019720,5.03 BN - Nordbrücke (Südseite),2015-05-01,50.75490458,7.096788329,182.0,182.0,182.0,182.0,182.0,182.0,647.0
183,183,100019721,5.04 BN - Nordbrücke (Nordseite),2015-05-01,50.75769827,7.101340951,183.0,183.0,183.0,183.0,183.0,183.0,648.0
184,184,100019722,5.05 BN - Südbrücke (Südseite),2015-05-01,50.71546283,7.142160723,184.0,184.0,184.0,184.0,184.0,184.0,649.0
185,185,100019723,5.06 BN - Südbrücke (Nordseite),2015-05-01,50.719436,7.144403347999999,185.0,185.0,185.0,185.0,185.0,185.0,650.0
186,186,100019724,5.07 BN - Estermannufer,2015-05-01,50.7680718,7.068537905,186.0,186.0,186.0,186.0,186.0,186.0,651.0
187,187,100019725,5.10 BN - Bröhltalweg,2015-05-01,50.742508,7.113625999999999,187.0,187.0,187.0,187.0,187.0,187.0,652.0
188,188,100019726,5.11 BN - Brühler Straße,2015-06-01,50.740383,7.069422,188.0,188.0,188.0,188.0,188.0,188.0,653.0
189,189,100019727,5.12 BN - Straßenburger Weg,2015-07-01,50.71930388,7.113497309,189.0,189.0,189.0,189.0,189.0,189.0,654.0
190,190,100019728,5.08 BN - Von-Sandt-Ufer,2015-06-01,50.700893,7.166909,190.0,190.0,190.0,190.0,190.0,190.0,655.0
191,191,100019729,5.09 BN - Rhenusallee,2015-06-01,50.72213,7.134297,191.0,191.0,191.0,191.0,191.0,191.0,656.0
192,192,100019731,2.08 RSK - Neunk.-Seelscheid,2015-07-03,50.874657,7.331745,192.0,192.0,192.0,192.0,192.0,192.0,657.0
193,193,100019732,2.01 RSK - Windeck,2015-08-22,50.80748,7.5964399999999985,193.0,193.0,193.0,193.0,193.0,193.0,658.0
194,194,100019733,2.02 RSK - Hennef,2015-06-29,50.773903,7.3775787,194.0,194.0,194.0,194.0,194.0,194.0,659.0
195,195,100019734,2.03 RSK - Sankt Augustin,2015-07-18,50.79667,7.1651273,195.0,195.0,195.0,195.0,195.0,195.0,660.0
196,196,100019735,2.04 RSK - Niederkassel,2015-09-10,50.799595,7.0360007,196.0,196.0,196.0,196.0,196.0,196.0,661.0
197,197,100019736,2.06 RSK - Bornheim,2015-09-11,50.76238,6.972411,197.0,197.0,197.0,197.0,197.0,197.0,662.0
198,198,100019737,2.07 RSK - Lohmar,2015-06-02,50.82845791,7.205303138,198.0,198.0,198.0,198.0,198.0,198.0,663.0
199,199,100019738,2.05 RSK - Königswinter,2015-09-10,50.67356,7.1916995,199.0,199.0,199.0,199.0,199.0,199.0,664.0
200,200,100019739,2.09 RSK - Meckenheim,2015-09-10,50.62785782,6.9883600339999985,200.0,200.0,200.0,200.0,200.0,200.0,665.0
201,201,100019740,2.10 RSK - Wachtberg,2015-07-17,50.64481,7.099431,201.0,201.0,201.0,201.0,201.0,201.0,666.0
202,202,100019755,6.02 K - Vorgebirgspark,2015-05-31,50.913017,6.948681,202.0,202.0,202.0,202.0,202.0,202.0,667.0
203,203,100019756,6.03 K - Alphons-Sibermann-Weg,2015-05-27,50.930084,6.9304169999999985,203.0,203.0,203.0,203.0,203.0,203.0,668.0
204,204,100019757,6.04 K - Stadtwald,2015-05-22,50.933098,6.8929157000000005,204.0,204.0,204.0,204.0,204.0,204.0,669.0
205,205,100019758,6.05 K - Niederländer Ufer,2015-05-28,50.962322,6.986403,205.0,205.0,205.0,205.0,205.0,205.0,670.0
206,206,100019777,ANTOFAGASTA EN BICICLETA,2015-04-28,-23.59598,-70.39641,206.0,206.0,206.0,206.0,206.0,206.0,671.0
207,207,100019778,BUSTAMANTE,2015-03-29,-33.43926389,-70.63201315,207.0,207.0,207.0,207.0,207.0,207.0,672.0
208,208,100019809,5.01 BN - Kennedybrücke (Nordseite),2015-04-01,50.73871332,7.11321441,208.0,208.0,208.0,208.0,208.0,208.0,673.0
209,209,100019810,5.02 BN - Kennedybrücke (Südseite) Barometer,2015-04-01,50.73763220000001,7.106626754,209.0,209.0,209.0,209.0,209.0,209.0,674.0
210,210,100020095,5 Street North of 10 Ave SW,2015-06-18,51.044643,-114.073906,210.0,210.0,210.0,210.0,210.0,210.0,0.0
211,211,100020103,Stephen Avenue Bicycle Counts,2014-10-23,51.045803,-114.06171,211.0,211.0,211.0,211.0,211.0,211.0,1.0
212,212,100020104,Stephen Avenue Car Counts,2014-10-20,51.04554,-114.063644,212.0,212.0,212.0,212.0,212.0,212.0,2.0
213,213,100020198,Aksla,2015-07-01,69.63816,18.999384,213.0,213.0,213.0,213.0,213.0,213.0,3.0
214,214,100020199,Dalbergstien,2015-07-01,69.63743973,18.98638926,214.0,214.0,214.0,214.0,214.0,214.0,4.0
215,215,100020201,Stephen Avenue Bicycle Counts,2014-10-23,51.045574,-114.06489,215.0,215.0,215.0,215.0,215.0,215.0,5.0
216,216,100020207,Stephen Avenue Counts,2014-10-22,51.045563,-114.06445,216.0,216.0,216.0,216.0,216.0,216.0,6.0
217,217,100020243,Stephen Avenue Car & Cyclist Counts,2014-10-23,51.045555,-114.06421,217.0,217.0,217.0,217.0,217.0,217.0,7.0
218,218,100020479,POCURO,2015-03-29,-33.43508,-70.60382,218.0,218.0,218.0,218.0,218.0,218.0,8.0
219,219,100020660,Y2H15037455,2016-03-30,51.048805,-114.08899,219.0,219.0,219.0,219.0,219.0,219.0,9.0
220,220,100020661,10 St North of 5 Ave NW,2016-03-22,51.05897537,-114.0854958,220.0,220.0,220.0,220.0,220.0,220.0,10.0
221,221,100020865,"Madison, WI – Eco-Totem on the Capital City Trail at North Shore Dr.",2015-06-23,43.06741,-89.38508,221.0,221.0,221.0,221.0,221.0,221.0,11.0
222,222,100020873,Capital Crescent Trail #2,2015-02-11,38.94307,-77.11565999999998,222.0,222.0,222.0,222.0,222.0,222.0,12.0
223,223,100020981,Seattle Fremont Bridge,2012-10-08,47.64811715,-122.3498142,223.0,223.0,223.0,223.0,223.0,223.0,13.0
224,224,100020993,SWCT Permanent Counter,2015-05-29,30.26228,-97.68429,224.0,224.0,224.0,224.0,224.0,224.0,14.0
225,225,100020994,JCT Permanent Counter,2015-05-29,30.27602000000001,-97.77029,225.0,225.0,225.0,225.0,225.0,225.0,15.0
226,226,100020995,Boardwalk Permanent Counter,2015-05-29,30.25478612,-97.74266339,226.0,226.0,226.0,226.0,226.0,226.0,16.0
227,227,100021131,Bordan Street,2014-12-22,43.440197,-80.47681,227.0,227.0,227.0,227.0,227.0,227.0,17.0
228,228,100021132,Queen Street,2014-12-22,43.44348,-80.49606999999997,228.0,228.0,228.0,228.0,228.0,228.0,18.0
229,229,100021143,Kennedybrücke,2015-04-01,50.73819495,7.110285443,229.0,229.0,229.0,229.0,229.0,229.0,19.0
230,230,100021182,Østensjøvn ved Østensjøvannet,2015-09-08,59.8941,10.8328,230.0,230.0,230.0,230.0,230.0,230.0,20.0
231,231,100021183,Jon Smestads vei 4,2015-05-13,59.93746,10.680129,231.0,231.0,231.0,231.0,231.0,231.0,21.0
232,232,100021184,Bærumsveien 22,2015-05-15,59.92646800000001,10.634876,232.0,232.0,232.0,232.0,232.0,232.0,22.0
233,233,100021185,Ullern gårdsvei 40,2015-05-13,59.92508100000001,10.646841,233.0,233.0,233.0,233.0,233.0,233.0,23.0
234,234,100021390,Vækerøveien 146A,2015-07-10,59.93625,10.63983,234.0,234.0,234.0,234.0,234.0,234.0,24.0
235,235,100021391,Hoffsveien,2015-05-21,59.93059,10.6759,235.0,235.0,235.0,235.0,235.0,235.0,25.0
236,236,100021392,Cykelbarometer,2016-05-08,59.39870500000001,17.982925,236.0,236.0,236.0,236.0,236.0,236.0,26.0
237,237,100021426,SS-22 State St. North Side,2015-05-29,43.074787,-89.387405,237.0,237.0,237.0,237.0,237.0,237.0,27.0
238,238,100021427,SS-23 State St. South Side,2015-05-29,43.07469,-89.38772,238.0,238.0,238.0,238.0,238.0,238.0,28.0
239,239,100021607,Hickory Bridge,2015-05-03,45.39817,-75.70998399999998,239.0,239.0,239.0,239.0,239.0,239.0,29.0
240,240,100021727,6.01 K - Alfred Schütte kpl,2015-05-18,50.914497,6.9818854,240.0,240.0,240.0,240.0,240.0,240.0,30.0
241,241,100022012,Mobil sykkelteller,2015-06-15,61.09907349,10.4852105,241.0,241.0,241.0,241.0,241.0,241.0,31.0
242,242,100022226,01 Bonner Straße Rad,2012-02-28,0.0,0.0,242.0,242.0,242.0,242.0,242.0,242.0,32.0
243,243,100022305,Storgata_Lilletorget,2015-07-15,61.11565332,10.48515532,243.0,243.0,243.0,243.0,243.0,243.0,33.0
244,244,100022540,5 Street North of 5 Ave SW Perm,2015-06-17,51.049423,-114.07359,244.0,244.0,244.0,244.0,244.0,244.0,34.0
245,245,100022541,5 Street North of 15 Ave SW Perm,2015-06-16,51.039036,-114.07439,245.0,245.0,245.0,245.0,245.0,245.0,35.0
246,246,100022543,5 St North of 10 Ave,2015-06-16,51.043907,-114.07388,246.0,246.0,246.0,246.0,246.0,246.0,36.0
247,247,100022547,8 Ave West of 8 St SW EB,2015-06-10,51.046043,-114.0817,247.0,247.0,247.0,247.0,247.0,247.0,37.0
248,248,100022580,12 Ave West of 2 St SW Perm,2015-06-16,51.041634,-114.068985,248.0,248.0,248.0,248.0,248.0,248.0,38.0
249,249,100022581,12 Ave West of 8 St SW Perm,2015-06-16,51.04198,-114.08213,249.0,249.0,249.0,249.0,249.0,249.0,39.0
250,250,100022582,12 Ave West of 3 St SE Perm,2015-06-16,51.04131,-114.05776000000002,250.0,250.0,250.0,250.0,250.0,250.0,40.0
251,251,100023038,Broadway Eco-Totem,2015-06-23,42.363304,-71.08575400000002,251.0,251.0,251.0,251.0,251.0,251.0,41.0
252,252,100023071,Sperling,2001-01-01,0.0,0.0,252.0,252.0,252.0,252.0,252.0,252.0,42.0
253,253,100023085,Winston - Sperling,2009-07-02,49.24301,-122.97224,253.0,253.0,253.0,253.0,253.0,253.0,43.0
254,254,100023269,01 K - Bonner Straße Rad,2012-04-01,50.9182,6.960489,254.0,254.0,254.0,254.0,254.0,254.0,44.0
255,255,100023270,02 K - Venloer Straße Rad,2014-07-01,50.945816,6.9266076000000005,255.0,255.0,255.0,255.0,255.0,255.0,45.0
256,256,100023387,M2L1 - BTW BUCKHOUSE & BLUE MTN,2015-10-21,46.82696,-114.07001499999998,256.0,256.0,256.0,256.0,256.0,256.0,46.0
257,257,100023388,M2L2 - BTW BLUE MTN & WEIGH STATION,2015-10-21,46.801346,-114.09599,257.0,257.0,257.0,257.0,257.0,257.0,47.0
258,258,100023389,M2L3 - S OF MORMON CRK RD,2015-10-21,46.747185,-114.08304,258.0,258.0,258.0,258.0,258.0,258.0,48.0
259,259,100023514,Sussex at Macdonald-Cartier Bridge,2015-08-20,45.43538715,-75.69849216,259.0,259.0,259.0,259.0,259.0,259.0,49.0
260,260,100023678,Bike Counts in 2015,2015-01-01,0.0,0.0,260.0,260.0,260.0,260.0,260.0,260.0,50.0
261,261,100024146,Nordstrandveien 59,2015-10-07,59.86035,10.80796,261.0,261.0,261.0,261.0,261.0,261.0,51.0
262,262,100024147,Tvetenveien,2015-10-07,59.9132,10.82386,262.0,262.0,262.0,262.0,262.0,262.0,52.0
263,263,100024148,Holmenkollvn 42,2015-09-10,59.94954,10.67611,263.0,263.0,263.0,263.0,263.0,263.0,53.0
264,264,100024149,Trasop skole,2015-09-10,59.90593000000001,10.85111,264.0,264.0,264.0,264.0,264.0,264.0,54.0
265,265,100024150,Vaterlands bro,2015-10-02,59.91341,10.75789,265.0,265.0,265.0,265.0,265.0,265.0,55.0
266,266,100024151,Kierschowsgate 10,2015-09-11,59.93691,10.74792,266.0,266.0,266.0,266.0,266.0,266.0,56.0
267,267,100024230,Sherwood Forest,2015-09-18,37.33722,-77.01868,267.0,267.0,267.0,267.0,267.0,267.0,57.0
268,268,100024231,Adkins Road,2015-09-18,37.332188,-77.10073,268.0,268.0,268.0,268.0,268.0,268.0,58.0
269,269,100024232,Four Mile Creek,2015-09-17,37.43519565,-77.32803408,269.0,269.0,269.0,269.0,269.0,269.0,59.0
270,270,100024233,Almond Creek,2015-09-17,37.50754000000001,-77.413864,270.0,270.0,270.0,270.0,270.0,270.0,60.0
271,271,100024234,Willis Church,2015-09-17,37.405174,-77.26437,271.0,271.0,271.0,271.0,271.0,271.0,61.0
272,272,100024235,Herring Creek,2015-09-18,37.33797,-77.17409,272.0,272.0,272.0,272.0,272.0,272.0,62.0
273,273,100024236,Chickahominy River,2015-09-18,37.262756,-76.88913000000002,273.0,273.0,273.0,273.0,273.0,273.0,63.0
274,274,100024297,8 Ave West of 8 Street,2015-07-11,51.04605,-114.081604,274.0,274.0,274.0,274.0,274.0,274.0,64.0
275,275,100024362,Folsom @ Boulder Creek,2011-09-08,40.01304,-105.26307,275.0,275.0,275.0,275.0,275.0,275.0,65.0
276,276,100024363,Folsom @ Pine,2015-07-20,40.02342,-105.26363,276.0,276.0,276.0,276.0,276.0,276.0,66.0
277,277,100024364,Folsom @ South St.,2015-07-20,40.01965,-105.26311499999998,277.0,277.0,277.0,277.0,277.0,277.0,67.0
278,278,100024535,"TriMet - Tilikum Crossing, Eastbound",2015-08-07,45.50327237,-122.669503,278.0,278.0,278.0,278.0,278.0,278.0,68.0
279,279,100024536,"TriMet - Tilikum Crossing, Westbound",2015-08-06,45.50658922,-122.6641113,279.0,279.0,279.0,279.0,279.0,279.0,69.0
280,280,100024559,Bike Barometer: Portland Tilikum Crossing,2015-09-09,45.505068,-122.666801,280.0,280.0,280.0,280.0,280.0,280.0,70.0
281,281,100024661,Jannowitzbrücke,2015-04-01,52.51406586,13.41775102,281.0,281.0,281.0,281.0,281.0,281.0,71.0
282,282,100024661,Jannowitzbrücke,2015-04-01,52.51406586,13.41775102,282.0,282.0,282.0,282.0,282.0,282.0,72.0
283,283,100024668,Prescott Russell Site 1 - ZELT Only,2015-08-19,45.41792,-75.55974,283.0,283.0,283.0,283.0,283.0,283.0,73.0
284,284,100024668,Prescott Russell Site 1 - ZELT Only,2015-08-19,45.41792,-75.55974,284.0,284.0,284.0,284.0,284.0,284.0,74.0
285,285,100024763,"Števec kolesarjev -  Novo mesto, Glavni trg ",2015-09-15,45.801926,15.170695000000002,285.0,285.0,285.0,285.0,285.0,285.0,75.0
286,286,100024763,"Števec kolesarjev -  Novo mesto, Glavni trg ",2015-09-15,45.801926,15.170695000000002,286.0,286.0,286.0,286.0,286.0,286.0,76.0
287,287,100025075,Langmatt,2015-12-01,47.03501,8.259913000000001,287.0,287.0,287.0,287.0,287.0,287.0,77.0
288,288,100025076,Schlundstrasse,2015-12-01,47.02812,8.28801,288.0,288.0,288.0,288.0,288.0,288.0,78.0
289,289,100025077,Nidfeldstrasse,2016-01-01,47.02758867,8.298966222999999,289.0,289.0,289.0,289.0,289.0,289.0,79.0
290,290,100025078,Horwerstrasse,2015-12-01,47.03198,8.2837,290.0,290.0,290.0,290.0,290.0,290.0,80.0
291,291,100025079,Langsägestrasse,2015-12-01,47.038303000000006,8.294642,291.0,291.0,291.0,291.0,291.0,291.0,81.0
292,292,100025080,Schachenstrasse,2015-12-01,47.03499833,8.280477756,292.0,292.0,292.0,292.0,292.0,292.0,82.0
293,293,100025080,Schachenstrasse,2015-12-01,47.03499833,8.280477756,293.0,293.0,293.0,293.0,293.0,293.0,83.0
294,294,100025243,Nanny Goat Hill,2015-11-06,45.41563724,-75.70742316,294.0,294.0,294.0,294.0,294.0,294.0,84.0
295,295,100025372,FR3 Eschholzstr. / Egonstraße - Radfahrende im Querschnitt,2015-01-01,47.99968300000001,7.837089999999999,295.0,295.0,295.0,295.0,295.0,295.0,85.0
296,296,100025474,Saint-Laurent/Bellechasse,2016-12-01,45.52781954,-73.60311217,296.0,296.0,296.0,296.0,296.0,296.0,86.0
297,297,100025615,Kyststien Engersand,2015-11-09,59.72830901,10.30333274,297.0,297.0,297.0,297.0,297.0,297.0,87.0
298,298,100025792,O-Train Trillium at Beech,2016-06-24,45.40055472,-75.71112656,298.0,298.0,298.0,298.0,298.0,298.0,88.0
299,299,100026088,Taubenhaus (603),2012-01-01,47.04239000000001,8.302204,299.0,299.0,299.0,299.0,299.0,299.0,89.0
300,300,100026123,San Sebastian,2015-11-08,43.29995,-1.9561509,300.0,300.0,300.0,300.0,300.0,300.0,90.0
301,301,100026124,Bilbao - Ayuntamiento,2015-11-08,43.26413,-2.9240992,301.0,301.0,301.0,301.0,301.0,301.0,91.0
302,302,100026313,"Folsom @ South St. - Non Active, Pending Reconf.",2015-07-20,40.01965,-105.26311499999998,302.0,302.0,302.0,302.0,302.0,302.0,92.0
303,303,100026469,Lysløype Fet,2016-02-26,59.752403,5.3066645,303.0,303.0,303.0,303.0,303.0,303.0,93.0
304,304,100026656,Avenida Gasteiz,2015-11-05,42.849293,-2.6813104,304.0,304.0,304.0,304.0,304.0,304.0,94.0
305,305,100026846,Compteur t'est ,2016-01-01,48.75720027,-3.463690546,305.0,305.0,305.0,305.0,305.0,305.0,95.0
306,306,100027012,Lower Causeway (700 Government - West),2017-06-08,48.42168484,-123.3688836,306.0,306.0,306.0,306.0,306.0,306.0,96.0
307,307,100027013,Hotel Rialto (600 Pandora - South),2017-06-07,48.42799149,-123.3649496,307.0,307.0,307.0,307.0,307.0,307.0,97.0
308,308,100027014,Fort St (800 Fort - South),2017-06-07,48.42414782,-123.3619243,308.0,308.0,308.0,308.0,308.0,308.0,98.0
309,309,100027015,Public Market (1700 Douglas - East),2017-06-07,48.42968783,-123.364285,309.0,309.0,309.0,309.0,309.0,309.0,99.0
310,310,100027018,Åsbieskogen (Arendal kommune),2019-06-11,58.45380843,8.725426727,310.0,310.0,310.0,310.0,310.0,310.0,100.0
311,311,100027019,Fevik - strandpromenaden (Grimstad kommune),2019-01-01,58.37142299,8.671525055,311.0,311.0,311.0,311.0,311.0,311.0,101.0
312,312,100027020,Lyngmyr - Fagerhei (Tvedestrand kommune),2018-01-01,58.63120711,8.941505486,312.0,312.0,312.0,312.0,312.0,312.0,102.0
313,313,100027021,Urheia (Risør kommune),2019-02-25,58.72342485,9.232814842,313.0,313.0,313.0,313.0,313.0,313.0,103.0
314,314,100027022,Hasseltangen (Grimstad kommune),2019-01-01,58.392487,8.724341,314.0,314.0,314.0,314.0,314.0,314.0,104.0
315,315,100027039,Hove (Arendal kommune),2019-05-28,58.43630921,8.827339667,315.0,315.0,315.0,315.0,315.0,315.0,105.0
316,316,100027059,Øynaheia (Froland kommune),2019-01-01,58.515869,8.410717779,316.0,316.0,316.0,316.0,316.0,316.0,106.0
317,317,100027060,Dømmesmoen (Grimstad kommune),2019-01-01,58.35562076,8.573935562,317.0,317.0,317.0,317.0,317.0,317.0,107.0
318,318,100027061,Kleivvann/Havrefjell (Gjerstad/Nissedal kommune),2019-01-01,58.884068000000006,8.902749,318.0,318.0,318.0,318.0,318.0,318.0,108.0
319,319,100027062,Myra - lysløypa VSA (Vegårshei kommune),2019-01-01,58.74804706,8.85048204,319.0,319.0,319.0,319.0,319.0,319.0,109.0
320,320,100027063,Hillestadheia (Åmli kommune),2019-01-01,58.82926229,8.193791443,320.0,320.0,320.0,320.0,320.0,320.0,110.0
321,321,100027075,5.14 BN - Mc Cloy Weg,2016-02-01,50.6709115,7.1880155,321.0,321.0,321.0,321.0,321.0,321.0,111.0
322,322,100027076,5.15 BN - Weg auf Damm Neil,2016-02-01,50.73356,7.1155399999999975,322.0,322.0,322.0,322.0,322.0,322.0,112.0
323,323,100027077,5.13 BN - Wilhelm-Spiritus-Ufer,2016-02-01,50.72844501,7.111953889,323.0,323.0,323.0,323.0,323.0,323.0,113.0
324,324,100027116,Butler Trail,2016-02-16,30.27475183,-97.77071379,324.0,324.0,324.0,324.0,324.0,324.0,114.0
325,325,100027141,Svartneset,2015-11-13,63.42966461,10.80533054,325.0,325.0,325.0,325.0,325.0,325.0,115.0
326,326,100027494,R. Vergueiro,2016-01-16,-23.5777752,-46.64073932,326.0,326.0,326.0,326.0,326.0,326.0,116.0
327,327,100027495,Faria Lima,2016-01-18,-23.56881700000001,-46.69212,327.0,327.0,327.0,327.0,327.0,327.0,117.0
328,328,100027939,Klevvann(Gjerstad kommune),2018-01-01,58.88407291,8.90214266,328.0,328.0,328.0,328.0,328.0,328.0,118.0
329,329,100028002,Piloto Lx,2016-01-26,38.73515759,-9.144545259,329.0,329.0,329.0,329.0,329.0,329.0,119.0
330,330,100028353,Gabriela Mistral con Andes,2017-01-01,-38.72913,-72.62009,330.0,330.0,330.0,330.0,330.0,330.0,120.0
331,331,100029087,1200 Penn Bikes Only,2016-04-15,40.44608,-79.99171,331.0,331.0,331.0,331.0,331.0,331.0,121.0
332,332,100029088,900 Penn Bikes Only,2016-04-15,40.44419,-79.99679,332.0,332.0,332.0,332.0,332.0,332.0,122.0
333,333,100029089,600 Penn Bikes,2015-04-02,40.442776,-80.00171999999998,333.0,333.0,333.0,333.0,333.0,333.0,123.0
334,334,100029120,Penn 1200 Bikes Only,2016-04-15,40.44608,-79.99171,334.0,334.0,334.0,334.0,334.0,334.0,124.0
335,335,100029121,Penn 900 Bikes Only,2016-04-15,40.44419,-79.99679,335.0,335.0,335.0,335.0,335.0,335.0,125.0
336,336,100029123,Penn 600 Bikes Only,2016-04-15,40.44281,-80.00173000000002,336.0,336.0,336.0,336.0,336.0,336.0,126.0
337,337,100029851,NTFK #4,2016-05-11,63.87266999999999,11.29436,337.0,337.0,337.0,337.0,337.0,337.0,127.0
338,338,100029854,03 K - Hohenzollernbrücke,2016-04-01,50.94118,6.9701,338.0,338.0,338.0,338.0,338.0,338.0,128.0
339,339,100029902,Sickla allé/ Sickla strand,2016-04-28,59.30272157,18.11636216,339.0,339.0,339.0,339.0,339.0,339.0,129.0
340,340,100029903,Järlaleden,2016-04-28,59.3058196,18.13492483,340.0,340.0,340.0,340.0,340.0,340.0,130.0
341,341,100029904,Värmdövägen Nacka Forum,2016-05-02,59.30826871,18.16312815,341.0,341.0,341.0,341.0,341.0,341.0,131.0
342,342,100029905,Värmdövägen Björknäs,2016-05-02,59.31535373,18.23008284,342.0,342.0,342.0,342.0,342.0,342.0,132.0
343,343,100029916,Pinawa Friends of the Trans Canada Trail,2016-05-07,50.14468,-95.87556,343.0,343.0,343.0,343.0,343.0,343.0,133.0
344,344,100029965,Ernst-Walz-Brücke Richtung Stadt,2014-06-01,49.408844,8.676708999999999,344.0,344.0,344.0,344.0,344.0,344.0,134.0
345,345,100029972,Knox Mountain - Apex Trail,2017-05-15,49.89215399,-119.4056446,345.0,345.0,345.0,345.0,345.0,345.0,135.0
346,346,100030145,Ritz Hotel (700 Fort - North),2017-06-07,48.42466065,-123.364871,346.0,346.0,346.0,346.0,346.0,346.0,136.0
347,347,100030168,Rails with Trails,2016-03-22,49.887615,-119.4569,347.0,347.0,347.0,347.0,347.0,347.0,137.0
348,348,100030332,Bjørgan skianlegg #1,2016-03-27,64.39220551,12.33317157,348.0,348.0,348.0,348.0,348.0,348.0,138.0
349,349,100030353,Toteemi,2016-04-27,60.47905,22.19256,349.0,349.0,349.0,349.0,349.0,349.0,139.0
350,350,100030402,Bow River Pathway,2016-03-30,51.04957609,-114.0863856,350.0,350.0,350.0,350.0,350.0,350.0,140.0
351,351,100030418,04 K - Neumarkt kpl,2016-03-24,50.93637257,6.947836757,351.0,351.0,351.0,351.0,351.0,351.0,141.0
352,352,100030452,9 Ave West of 4 St SE,2015-06-16,51.04436368,-114.0539707,352.0,352.0,352.0,352.0,352.0,352.0,142.0
353,353,100030470,Sentier de la marinade,2016-04-06,45.84913,4.84667,353.0,353.0,353.0,353.0,353.0,353.0,143.0
354,354,100030488,Clifton NB,2016-03-22,49.892555,-119.46571000000002,354.0,354.0,354.0,354.0,354.0,354.0,144.0
355,355,100030490,Clifton SB,2016-03-22,49.8925189,-119.4658804,355.0,355.0,355.0,355.0,355.0,355.0,145.0
356,356,100030491,Ethel St ATC,2016-03-22,49.88467107,-119.4828044,356.0,356.0,356.0,356.0,356.0,356.0,146.0
357,357,100030517,06 K - Zülpicher Straße kpl.,2016-04-07,50.92740654,6.93428398,357.0,357.0,357.0,357.0,357.0,357.0,147.0
358,358,100030584,Sentiers des Grandes Terres,2016-04-08,45.6712,4.8757696,358.0,358.0,358.0,358.0,358.0,358.0,148.0
359,359,100030585,Sentier de Sacuny,2016-04-08,45.687847,4.7770199999999985,359.0,359.0,359.0,359.0,359.0,359.0,149.0
360,360,100030586,Sentier du Biézin nature,2016-04-08,45.754517,4.9588695,360.0,360.0,360.0,360.0,360.0,360.0,150.0
361,361,100030610,Pensacola Street at Martin Luther King Jr. Blvd,2016-11-29,30.43876859,-84.28628747,361.0,361.0,361.0,361.0,361.0,361.0,151.0
362,362,100030611,Madison Street at Boulevard Street,2017-01-19,30.4382559,-84.2807329,362.0,362.0,362.0,362.0,362.0,362.0,152.0
363,363,100030630,Sentier de Sermenaz,2016-04-18,45.81894000000001,4.908427,363.0,363.0,363.0,363.0,363.0,363.0,153.0
364,364,100030638,Sentier du bois de Serres,2016-04-18,45.796566,4.7575192,364.0,364.0,364.0,364.0,364.0,364.0,154.0
365,365,100030640,Sentier jeu de regards,2016-04-18,45.77457,4.7296830000000005,365.0,365.0,365.0,365.0,365.0,365.0,155.0
366,366,100030642,Sentier du vallon de l'Yzeron,2016-04-18,45.742382,4.739413,366.0,366.0,366.0,366.0,366.0,366.0,156.0
367,367,100030651,Sentier de l'Homme et du Paysage,2016-04-19,45.83286,4.808203,367.0,367.0,367.0,367.0,367.0,367.0,157.0
368,368,100030652,Sentier du ruisseau de Rochecardon,2016-04-19,45.809753,4.782476,368.0,368.0,368.0,368.0,368.0,368.0,158.0
369,369,100030659,Boucle du Franc Lyonnais,2016-04-19,45.883167,4.854068,369.0,369.0,369.0,369.0,369.0,369.0,159.0
370,370,100030676,Sentier de l'Homme et du fleuve,2016-04-20,45.641506,4.815302,370.0,370.0,370.0,370.0,370.0,370.0,160.0
371,371,100030761,8 Ave West of 3 Street SW,2015-07-10,51.045746,-114.07067,371.0,371.0,371.0,371.0,371.0,371.0,161.0
372,372,100030761,8 Ave West of 3 Street SW,2015-07-10,51.045746,-114.07067,372.0,372.0,372.0,372.0,372.0,372.0,162.0
373,373,100030768,8 Ave West of 3 Street,2015-07-09,51.045742,-114.07051,373.0,373.0,373.0,373.0,373.0,373.0,163.0
374,374,100030820,Seattle 2nd Avenue,2016-04-23,47.60478163,-122.3347628,374.0,374.0,374.0,374.0,374.0,374.0,164.0
375,375,100030837,Adawe Crossing,2015-12-04,45.42604608,-75.67060983,375.0,375.0,375.0,375.0,375.0,375.0,165.0
376,376,100030931,Pablo Neruda con Olimpia,2017-01-01,-38.73991455,-72.62299490000002,376.0,376.0,376.0,376.0,376.0,376.0,166.0
377,377,100030932,Pablo Neruda con J. Carrera ,2017-01-01,-38.73847,-72.62889,377.0,377.0,377.0,377.0,377.0,377.0,167.0
378,378,100030933,Gabriela Mistral con Recreo.,2017-01-01,-38.72843,-72.61454,378.0,378.0,378.0,378.0,378.0,378.0,168.0
379,379,100030934,Hochstetter con B. O´Higgins ,2017-01-01,-38.73938,-72.61802,379.0,379.0,379.0,379.0,379.0,379.0,169.0
380,380,100030935,Hochstetter con Pucon,2017-01-01,-38.72965,-72.61093000000002,380.0,380.0,380.0,380.0,380.0,380.0,170.0
381,381,100030986,Challenge Velo D788 (face IUT),2016-05-04,48.758408,-3.4536480000000003,381.0,381.0,381.0,381.0,381.0,381.0,171.0
382,382,100030989,D788 (face NOKIA),2016-05-05,48.758378,-3.453864,382.0,382.0,382.0,382.0,382.0,382.0,172.0
383,383,100030993,rue blaise Pascal (face construction Parlouer),2016-05-04,48.75981,-3.47949,383.0,383.0,383.0,383.0,383.0,383.0,173.0
384,384,100031062,Bologna - Via Sabotino,2016-05-18,44.497074,11.323423,384.0,384.0,384.0,384.0,384.0,384.0,174.0
385,385,100031197,"Solemstien, Overhalla NTFK#1 ",2016-05-19,64.54289,11.97386,385.0,385.0,385.0,385.0,385.0,385.0,175.0
386,386,100031222,D788,2016-05-01,48.75861,-3.4536264,386.0,386.0,386.0,386.0,386.0,386.0,176.0
387,387,100031285,Eco-Totem BH,2016-06-28,-19.932713,-43.929935,387.0,387.0,387.0,387.0,387.0,387.0,177.0
388,388,100031435,Levanger Moan NTFK #2,2016-05-31,63.74305,11.279907,388.0,388.0,388.0,388.0,388.0,388.0,178.0
389,389,100031441,8th Ave west of 8th street,2015-06-15,51.045986,-114.081795,389.0,389.0,389.0,389.0,389.0,389.0,179.0
390,390,100031480,Rock Creek Trail 1,2017-04-28,39.016129,-77.094196,390.0,390.0,390.0,390.0,390.0,390.0,180.0
391,391,100031482,Matthew Henson Trail 1,2017-04-28,39.08165896,-77.04735782,391.0,391.0,391.0,391.0,391.0,391.0,181.0
392,392,100031483,Rock Creek Trail 2,2016-08-15,39.090257,-77.113817,392.0,392.0,392.0,392.0,392.0,392.0,182.0
393,393,100031483,Rock Creek Trail 2,2016-08-15,39.090257,-77.113817,393.0,393.0,393.0,393.0,393.0,393.0,183.0
394,394,100031968,Randvik,2019-05-28,58.709534,9.222121,394.0,394.0,394.0,394.0,394.0,394.0,184.0
395,395,100031969,Lyngør (Tvedestrand kommune),2019-01-01,58.63335,9.135264,395.0,395.0,395.0,395.0,395.0,395.0,185.0
396,396,100031970,Granestua (Arendal kommune),2019-01-01,58.528156,8.753503,396.0,396.0,396.0,396.0,396.0,396.0,186.0
397,397,100031971,Merdø (Arendal kommune),2019-01-01,58.42606,8.805114,397.0,397.0,397.0,397.0,397.0,397.0,187.0
398,398,100032128,Troldhaugen,2016-10-27,60.31947185,5.329154569,398.0,398.0,398.0,398.0,398.0,398.0,188.0
399,399,100032129,Siljustøl,2016-10-06,60.29351186,5.298078441,399.0,399.0,399.0,399.0,399.0,399.0,189.0
400,400,100032130,Lysøen,2016-10-06,60.21373815,5.36198853,400.0,400.0,400.0,400.0,400.0,400.0,190.0
401,401,100032131,KODE 3,2016-08-19,60.3895,5.3275757000000015,401.0,401.0,401.0,401.0,401.0,401.0,191.0
402,402,100032146,NCC Western Canal Pathway at Ritz - Ottawa Counter,2015-07-03,45.40675,-75.68186,402.0,402.0,402.0,402.0,402.0,402.0,192.0
403,403,100032152,Invalidenstraße,2015-06-01,52.52718,13.37202,403.0,403.0,403.0,403.0,403.0,403.0,193.0
404,404,100032154,Frankfurter Allee,2016-06-01,52.51373868,13.47436716,404.0,404.0,404.0,404.0,404.0,404.0,194.0
405,405,100032155,Berliner Straße,2016-05-01,52.56681,13.41217,405.0,405.0,405.0,405.0,405.0,405.0,195.0
406,406,100032159,Schwedter Steg,2012-04-01,52.54884000000001,13.40037,406.0,406.0,406.0,406.0,406.0,406.0,196.0
407,407,100032161,Klosterstraße,2016-06-01,52.533665,13.198963,407.0,407.0,407.0,407.0,407.0,407.0,197.0
408,408,100032163,Breitenbachplatz,2016-05-01,52.46676,13.30916,408.0,408.0,408.0,408.0,408.0,408.0,198.0
409,409,100032165,Monumentenstraße,2015-05-01,52.48812,13.36979,409.0,409.0,409.0,409.0,409.0,409.0,199.0
410,410,100032166,Mariendorfer Damm,2016-05-01,52.43830500000001,13.387879000000002,410.0,410.0,410.0,410.0,410.0,410.0,200.0
411,411,100032169,Markstraße,2015-05-01,52.55819,13.36494,411.0,411.0,411.0,411.0,411.0,411.0,201.0
412,412,100032212,Oberbaumbrücke,2015-06-01,52.5012,13.44506,412.0,412.0,412.0,412.0,412.0,412.0,202.0
413,413,100032236,Maybachufer,2016-05-01,52.49311816,13.42914925,413.0,413.0,413.0,413.0,413.0,413.0,203.0
414,414,100032237,Kaisersteg,2016-05-01,52.45775788,13.5193596,414.0,414.0,414.0,414.0,414.0,414.0,204.0
415,415,100032269,Kvaløya,2016-07-22,69.689699,18.811952,415.0,415.0,415.0,415.0,415.0,415.0,205.0
416,416,100032454,Konrad Adenauer Allee,2016-09-17,48.36373435,10.895953,416.0,416.0,416.0,416.0,416.0,416.0,206.0
417,417,100032641,UCLA Westwood Bike Counter,2017-05-09,34.06431432,-118.445247,417.0,417.0,417.0,417.0,417.0,417.0,207.0
418,418,100032655,James Street Stairs,2016-07-07,43.24614678,-79.87411673,418.0,418.0,418.0,418.0,418.0,418.0,208.0
419,419,100032657,Wentworth Street Stairs,2016-07-07,43.24326768,-79.85264226,419.0,419.0,419.0,419.0,419.0,419.0,209.0
420,420,100032661,Kimberly Drive Stairs,2016-07-07,43.22907365,-79.81381454,420.0,420.0,420.0,420.0,420.0,420.0,210.0
421,421,100032714,Chedoke Stairs,2016-07-05,43.24569463,-79.90691219,421.0,421.0,421.0,421.0,421.0,421.0,211.0
422,422,100032715,Dundurn Street Stairs,2016-07-05,43.24546521,-79.89521739,422.0,422.0,422.0,422.0,422.0,422.0,212.0
423,423,100032754,King Street West Cycle Track,2016-07-19,43.26274122,-79.89090887,423.0,423.0,423.0,423.0,423.0,423.0,213.0
424,424,100032755,Waterfront Trail (Bayfront Park),2016-07-12,43.26928668,-79.87249888,424.0,424.0,424.0,424.0,424.0,424.0,214.0
425,425,100032772,Südbrücke,2016-05-01,50.71763663,7.1435135239999985,425.0,425.0,425.0,425.0,425.0,425.0,215.0
426,426,100032920,Cyrville Road,2016-11-16,45.4235124,-75.63509872,426.0,426.0,426.0,426.0,426.0,426.0,216.0
427,427,100032983,KunstLab,2016-08-15,60.38929399999999,5.3289094000000015,427.0,427.0,427.0,427.0,427.0,427.0,217.0
428,428,100033028,University Ave. Bike Lane (Rowe),2017-04-27,44.6370275,-63.5882169,428.0,428.0,428.0,428.0,428.0,428.0,218.0
429,429,100033035,Paul- und Paula-Uferweg,2015-06-01,52.50025,13.474379999999998,429.0,429.0,429.0,429.0,429.0,429.0,219.0
430,430,100033037,Alberichstraße,2015-07-01,52.4925,13.55849,430.0,430.0,430.0,430.0,430.0,430.0,220.0
431,431,100033038,Yorckstraße,2015-04-01,52.49199,13.37412,431.0,431.0,431.0,431.0,431.0,431.0,221.0
432,432,100033039,Prinzregentenstraße,2015-04-01,52.49058,13.33308,432.0,432.0,432.0,432.0,432.0,432.0,222.0
433,433,100033088,KODE 4 ,2016-08-25,60.389313,5.328995,433.0,433.0,433.0,433.0,433.0,433.0,223.0
434,434,100033089,KODE 2,2016-08-19,60.39006800000001,5.3253474,434.0,434.0,434.0,434.0,434.0,434.0,224.0
435,435,100033127,沧州解放西路自行车计数,2016-12-11,38.30372,116.82741,435.0,435.0,435.0,435.0,435.0,435.0,225.0
436,436,100033128,沧州运河绿道客流计数,2016-10-01,38.30882,116.84638,436.0,436.0,436.0,436.0,436.0,436.0,226.0
437,437,100033129,北京杨梅竹斜街胡同多方式计数,2016-10-03,39.89433351,116.38636499999998,437.0,437.0,437.0,437.0,437.0,437.0,227.0
438,438,100033130,北工大便携计数,2016-09-30,39.894337,116.38904,438.0,438.0,438.0,438.0,438.0,438.0,228.0
439,439,100033550,Edmonton Trail,2016-09-07,51.051323,-114.050316,439.0,439.0,439.0,439.0,439.0,439.0,229.0
440,440,100033615,Friedrichstr,2016-09-21,51.21577,6.77688,440.0,440.0,440.0,440.0,440.0,440.0,230.0
441,441,100033660,Elisabethstr,2016-09-21,51.21722715,6.775415967000001,441.0,441.0,441.0,441.0,441.0,441.0,231.0
442,442,100033674,Suvantosilta1,2016-10-10,62.59779245,29.76352289,442.0,442.0,442.0,442.0,442.0,442.0,232.0
443,443,100033675,Suvantosilta 2,2016-10-10,62.59809,29.76358,443.0,443.0,443.0,443.0,443.0,443.0,233.0
444,444,100033917,Belmont Pier Eco-TOTEM,2016-09-21,33.75895442,-118.1484627,444.0,444.0,444.0,444.0,444.0,444.0,234.0
445,445,100033965,HCC Tube Counter,2018-08-30,44.64115,-63.57923,445.0,445.0,445.0,445.0,445.0,445.0,235.0
446,446,100033984,Árpád híd,2016-12-02,47.53654858,19.05872914,446.0,446.0,446.0,446.0,446.0,446.0,236.0
447,447,100033985,Bem rakpart,2016-12-02,47.512257700000006,19.03949621,447.0,447.0,447.0,447.0,447.0,447.0,237.0
448,448,100033986,Weiss Manfréd út,2016-12-03,47.45627915,19.07142798,448.0,448.0,448.0,448.0,448.0,448.0,238.0
449,449,100033987,Hungária körút,2016-12-01,47.48898391,19.10923998,449.0,449.0,449.0,449.0,449.0,449.0,239.0
450,450,100033989,Lágymányosi híd,2016-10-30,47.46876479,19.07097952,450.0,450.0,450.0,450.0,450.0,450.0,240.0
451,451,100034053,Matthew Henson Trail 2,2016-08-16,39.058318,-77.0916,451.0,451.0,451.0,451.0,451.0,451.0,241.0
452,452,100034165,O'Connor @ Argyle,2016-10-13,45.41172757,-75.69040081,452.0,452.0,452.0,452.0,452.0,452.0,242.0
453,453,100034249,Arsenal ,2016-12-13,47.03814058,8.299547643,453.0,453.0,453.0,453.0,453.0,453.0,243.0
454,454,100034250,Kleinmatt,2016-12-13,47.04077957,8.306729119,454.0,454.0,454.0,454.0,454.0,454.0,244.0
455,455,100034452,Kvarnholmsvägen,2016-12-05,59.31198464,18.10941893,455.0,455.0,455.0,455.0,455.0,455.0,245.0
456,456,100034495,Marine Parade,2013-05-02,-39.5007888,176.9193886,456.0,456.0,456.0,456.0,456.0,456.0,246.0
457,457,100034496,Gloucester Street Taradale,2017-02-03,-39.54778958,176.8400694,457.0,457.0,457.0,457.0,457.0,457.0,247.0
458,458,100034497,Clifton Road,2017-02-24,-39.62194752,176.96287080000005,458.0,458.0,458.0,458.0,458.0,458.0,248.0
459,459,100034500,Main @ Evelyn,2017-06-17,45.41136628,-75.67931701,459.0,459.0,459.0,459.0,459.0,459.0,249.0
460,460,100034501,Main @ Centennial,2017-06-17,45.401682,-75.67365806,460.0,460.0,460.0,460.0,460.0,460.0,250.0
461,461,100034648,Santa Monica – Bike Counter – Main Street,2016-12-21,34.01196759,-118.492668,461.0,461.0,461.0,461.0,461.0,461.0,251.0
462,462,100034761,Műegyetem rakpart K. épület,2016-11-21,47.48224307,19.05623535,462.0,462.0,462.0,462.0,462.0,462.0,252.0
463,463,100034882,König-Karls-Brücke,2012-07-01,48.79912609,9.210372162,463.0,463.0,463.0,463.0,463.0,463.0,253.0
464,464,100034893,Hundertmännerstraße,2014-01-01,54.081974,12.114006,464.0,464.0,464.0,464.0,464.0,464.0,254.0
465,465,100034894,Böblinger Straße,2014-01-01,48.74661091,9.135662267999999,465.0,465.0,465.0,465.0,465.0,465.0,255.0
466,466,100034894,Böblinger Straße,2014-01-01,48.74661091,9.135662267999999,466.0,466.0,466.0,466.0,466.0,466.0,256.0
467,467,100035004,Nordbrücke,2015-05-01,50.75639231,7.099492972,467.0,467.0,467.0,467.0,467.0,467.0,257.0
468,468,100035097,Langensandbrücke ,2016-12-01,47.04544,8.309289999999999,468.0,468.0,468.0,468.0,468.0,468.0,258.0
469,469,100035126,8 Gillie Creek,2017-02-18,37.52275451,-77.41788135,469.0,469.0,469.0,469.0,469.0,469.0,259.0
470,470,100035172,Remington Bicycle Counter,2016-12-11,40.56887055,-105.0753297,470.0,470.0,470.0,470.0,470.0,470.0,260.0
471,471,100035242,Mackenzie @ Rideau,2017-01-01,45.42551994,-75.69437669999998,471.0,471.0,471.0,471.0,471.0,471.0,261.0
472,472,100035361,Waiblinger Str. Ri. Stadtmitte,2016-12-14,48.80515,9.22641,472.0,472.0,472.0,472.0,472.0,472.0,262.0
473,473,100035363,Waibl Stadtmitte,2016-12-14,48.80516,9.22629,473.0,473.0,473.0,473.0,473.0,473.0,263.0
474,474,100035631,Sunna kanal,2017-05-10,56.18880223,15.61322881,474.0,474.0,474.0,474.0,474.0,474.0,264.0
475,475,100035632,Söder om Torskors ind.område,2017-05-10,56.21513079,15.63985971,475.0,475.0,475.0,475.0,475.0,475.0,265.0
476,476,100035633,Verkö/Lyckeby,2017-05-10,56.19450171,15.64115834,476.0,476.0,476.0,476.0,476.0,476.0,266.0
477,477,100035640,Alcazar,2017-03-15,-37.47648361,-72.36265417,477.0,477.0,477.0,477.0,477.0,477.0,267.0
478,478,100035876,Cannon Street Cycle Track (West) - Total,2015-12-11,43.25799372,-79.85604196,478.0,478.0,478.0,478.0,478.0,478.0,268.0
479,479,100035887,Cannon Street Cycle Track (Bay) - Total,2015-12-11,43.26200686,-79.87299412,479.0,479.0,479.0,479.0,479.0,479.0,269.0
480,480,100036173,"Via Traiana - Parco Naturale Regionale ""Dune Costiere""",2017-03-31,40.78535953,17.51081825,480.0,480.0,480.0,480.0,480.0,480.0,270.0
481,481,100036173,"Via Traiana - Parco Naturale Regionale ""Dune Costiere""",2017-03-31,40.78535953,17.51081825,481.0,481.0,481.0,481.0,481.0,481.0,271.0
482,482,100036476,University Avenue Bike Display,2017-04-28,44.63761253,-63.58840039,482.0,482.0,482.0,482.0,482.0,482.0,272.0
483,483,100036486,Schachenstr. Velo,2015-12-01,47.03497312,8.280624241,483.0,483.0,483.0,483.0,483.0,483.0,273.0
484,484,100036488,Langsägestrasse Velo,2015-12-01,47.0383,8.29464,484.0,484.0,484.0,484.0,484.0,484.0,274.0
485,485,100036489,Langsägestrasse Velo,2015-12-01,47.0383,8.29464,485.0,485.0,485.0,485.0,485.0,485.0,275.0
486,486,100036499,403 (Hamilton-Brantford Trail),2017-02-23,43.25185328,-79.90994917,486.0,486.0,486.0,486.0,486.0,486.0,276.0
487,487,100036499,403 (Hamilton-Brantford Trail),2017-02-23,43.25185328,-79.90994917,487.0,487.0,487.0,487.0,487.0,487.0,277.0
488,488,100037010,Hinrichshagen,2017-03-27,54.19088341,12.18219011,488.0,488.0,488.0,488.0,488.0,488.0,278.0
489,489,100037011,Markgrafenheide,2017-03-27,54.19103434,12.18094564,489.0,489.0,489.0,489.0,489.0,489.0,279.0
490,490,100037012,Graal-Müritz,2015-06-16,54.19104662,12.18174004,490.0,490.0,490.0,490.0,490.0,490.0,280.0
491,491,100037111,Świnoujście,2017-05-15,53.92647772,14.2261767,491.0,491.0,491.0,491.0,491.0,491.0,281.0
492,492,100037112,Rogowo,2017-05-15,54.15462697,15.37698812,492.0,492.0,492.0,492.0,492.0,492.0,282.0
493,493,100037122,King St. West & Cannon St. (Bay) Cycle Track Total,2014-12-09,43.259419,-79.878747,493.0,493.0,493.0,493.0,493.0,493.0,283.0
494,494,100037170,König-Karls-Brücke ,2012-07-01,48.79907109,9.210355904,494.0,494.0,494.0,494.0,494.0,494.0,284.0
495,495,100037243,Av. Eng. J. Meireles,2017-04-13,37.0828052,-8.117742945,495.0,495.0,495.0,495.0,495.0,495.0,285.0
496,496,100037306,Av. da Marina,2017-04-13,37.0774987,-8.116660011,496.0,496.0,496.0,496.0,496.0,496.0,286.0
497,497,100037429,YSH17042064,2018-07-09,0.0,0.0,497.0,497.0,497.0,497.0,497.0,497.0,287.0
498,498,100037444,FMI00000454,2017-04-24,50.65816974,4.580880085,498.0,498.0,498.0,498.0,498.0,498.0,288.0
499,499,100037507,Waiblinger Str. Ri. Augsburger Platz,2014-01-01,48.80498248,9.226468548,499.0,499.0,499.0,499.0,499.0,499.0,289.0
500,500,100037508,Taubenheimstr. von Deckerstr.,2014-01-01,48.80495412,9.226962275,500.0,500.0,500.0,500.0,500.0,500.0,290.0
501,501,100037687,Corso Nizza Display,2017-05-21,44.38639039,7.544525342999999,501.0,501.0,501.0,501.0,501.0,501.0,291.0
502,502,100037688,Corso Nizza Provincia,2017-05-16,44.386241,7.544756887999999,502.0,502.0,502.0,502.0,502.0,502.0,292.0
503,503,100037750,Waterlily,2017-06-06,48.64880332,-123.3951735,503.0,503.0,503.0,503.0,503.0,503.0,293.0
504,504,100037899,Glenlyon - North Fraser Way,2017-09-19,49.20034636,-123.0102447,504.0,504.0,504.0,504.0,504.0,504.0,294.0
505,505,100038129,Contabici Corso Nizza,2017-05-21,44.38624,7.544760000000001,505.0,505.0,505.0,505.0,505.0,505.0,295.0
506,506,100038433,Santuario Angeli,2017-10-20,44.36845907,7.538894203,506.0,506.0,506.0,506.0,506.0,506.0,296.0
507,507,100038434,Pedancola Vassallo,2017-10-19,44.39322455,7.535487002999999,507.0,507.0,507.0,507.0,507.0,507.0,297.0
508,508,100038466,Silk Road (1600 Government - West),2017-06-07,48.42913168,-123.36725420000002,508.0,508.0,508.0,508.0,508.0,508.0,298.0
509,509,100038528,"Stephen Ave Counts (Pedestrians, Bikes & Cars)",2014-10-22,51.04554629,-114.0647387,509.0,509.0,509.0,509.0,509.0,509.0,299.0
510,510,100038690,Sirkkalan silta Etelä,2017-07-24,62.60307989,29.7690218,510.0,510.0,510.0,510.0,510.0,510.0,300.0
511,511,100038691,Sirkkalan silta Pohj,2017-07-24,62.60262,29.77349,511.0,511.0,511.0,511.0,511.0,511.0,301.0
512,512,100039000,Willingdon Linear Park - Brentlawn,2017-11-29,49.26981746,-123.0027419,512.0,512.0,512.0,512.0,512.0,512.0,302.0
513,513,100039001,Willingdon Linear Park - Frances,2017-07-04,49.27908506,-123.0030367,513.0,513.0,513.0,513.0,513.0,513.0,303.0
514,514,100039002,Willingdon Linear Park - Hastings,2017-07-04,49.28071329,-123.0028758,514.0,514.0,514.0,514.0,514.0,514.0,304.0
515,515,100039435,Wagenhalsstraße,2017-12-01,48.36483,10.90473,515.0,515.0,515.0,515.0,515.0,515.0,305.0
516,516,100039469,Radweg an der Aurach,2018-01-01,49.56765,10.88042,516.0,516.0,516.0,516.0,516.0,516.0,306.0
517,517,100039609,MacArthur Ave Display,2017-11-23,-35.25991255,149.1280486,517.0,517.0,517.0,517.0,517.0,517.0,307.0
518,518,100039656,La Pignatta,2017-07-27,48.64765662,-123.4000446,518.0,518.0,518.0,518.0,518.0,518.0,308.0
519,519,100039659,7-11 Beacon Ave.,2017-07-27,48.64902116,-123.4025498,519.0,519.0,519.0,519.0,519.0,519.0,309.0
520,520,100039661,Willingdon - Deer Lake Pkwy,2018-02-18,49.24359000000001,-123.00298,520.0,520.0,520.0,520.0,520.0,520.0,310.0
521,521,100039662,Willingdon - Goard Way,2018-02-18,49.25216,-123.00436,521.0,521.0,521.0,521.0,521.0,521.0,311.0
522,522,100039663,Willingdon - Sanderson Way,2018-02-18,49.24824,-123.00423,522.0,522.0,522.0,522.0,522.0,522.0,312.0
523,523,100040109,Bicivia 7,2018-03-14,41.3832133,2.106744716,523.0,523.0,523.0,523.0,523.0,523.0,313.0
524,524,100040135,High Rock Park_Blue & Yellow_Trail,2019-01-16,40.79162052,-73.93507426,524.0,524.0,524.0,524.0,524.0,524.0,314.0
525,525,100040190,Apache South Site,2018-01-03,33.41486337,-111.9348541,525.0,525.0,525.0,525.0,525.0,525.0,315.0
526,526,100040191,Forest North Site,2018-01-04,33.42182202,-111.9366657,526.0,526.0,526.0,526.0,526.0,526.0,316.0
527,527,100040193,LaTourette Park--GNC Trail/Bridge,2018-08-01,40.76760988,-73.97130226,527.0,527.0,527.0,527.0,527.0,527.0,317.0
528,528,100040476,Ulrichsbrücke,2017-01-01,48.37601197,10.91323737,528.0,528.0,528.0,528.0,528.0,528.0,318.0
529,529,100040696,Adawe Crossing Cyclists,2009-12-26,45.42604608,-75.67060983,529.0,529.0,529.0,529.0,529.0,529.0,319.0
530,530,100040697,Adawe Crossing Peds/Pietons,2009-12-26,45.42604608,-75.67060983,530.0,530.0,530.0,530.0,530.0,530.0,320.0
531,531,100040870,Leipzig,2017-10-25,51.33587154,12.36744767,531.0,531.0,531.0,531.0,531.0,531.0,321.0
532,532,100041000,West Giralda,2017-10-13,25.75127,-80.25872,532.0,532.0,532.0,532.0,532.0,532.0,322.0
533,533,100041114,Eco-Display Parc Stanley,2018-05-29,45.55759297,-73.67322198,533.0,533.0,533.0,533.0,533.0,533.0,323.0
534,534,100041252,Vidden,2017-11-27,60.3833333,5.4,534.0,534.0,534.0,534.0,534.0,534.0,324.0
535,535,100041597,Entdeckerpfad,2017-11-28,54.18458914,12.23723796,535.0,535.0,535.0,535.0,535.0,535.0,325.0
536,536,100041680,NCC Western Canal Pathway at Ritz - Oct 2017 ,2017-10-06,45.40675112,-75.68175771,536.0,536.0,536.0,536.0,536.0,536.0,326.0
537,537,100041791,Mackenzie @ Rideau Peds,2009-12-25,45.42551467,-75.69437409999998,537.0,537.0,537.0,537.0,537.0,537.0,327.0
538,538,100041792,Mackenzie @ Rideau Bikes,2009-12-25,45.42547667,-75.69435553,538.0,538.0,538.0,538.0,538.0,538.0,328.0
539,539,100041858,PORTA S  VITALE BOLOGNA,2018-01-05,44.49380879,11.35710676,539.0,539.0,539.0,539.0,539.0,539.0,329.0
540,540,100041999,Stadt Ludwigsburg Radzählstelle Alleenstraße ,2017-12-19,48.89318854,9.192943239,540.0,540.0,540.0,540.0,540.0,540.0,330.0
541,541,100042000,Eco-Display Turuntie,2017-12-12,60.99234797,24.44476398,541.0,541.0,541.0,541.0,541.0,541.0,331.0
542,542,100042081,Repokallio,2017-12-07,62.62409,29.69158,542.0,542.0,542.0,542.0,542.0,542.0,332.0
543,543,100042082,Lykynlampi,2017-12-07,62.68911,29.72692,543.0,543.0,543.0,543.0,543.0,543.0,333.0
544,544,100042159,Kardaun,2018-01-04,46.49466585,11.39027576,544.0,544.0,544.0,544.0,544.0,544.0,334.0
545,545,100042228,Poznań - pl.Wolności,2018-03-30,52.40780212,16.9262317,545.0,545.0,545.0,545.0,545.0,545.0,335.0
546,546,100042233,Pötkä,2017-12-13,62.60536805,29.77099377,546.0,546.0,546.0,546.0,546.0,546.0,336.0
547,547,100042272,Alexandrinenstr. ,2018-07-26,53.63673000000001,11.41092,547.0,547.0,547.0,547.0,547.0,547.0,337.0
548,548,100042273,Franzosenweg,2018-04-19,53.6214,11.4213,548.0,548.0,548.0,548.0,548.0,548.0,338.0
549,549,100042274,Ostorfer Ufer,2018-04-19,53.61453,11.41205,549.0,549.0,549.0,549.0,549.0,549.0,339.0
550,550,100042275,Lübecker Str.       ,2018-04-19,53.63644,11.39811,550.0,550.0,550.0,550.0,550.0,550.0,340.0
551,551,100042310,Havrefjell (Nissedal kommune),2019-05-01,58.93023309,8.737715879,551.0,551.0,551.0,551.0,551.0,551.0,341.0
552,552,100042383,Darłowo,2018-02-08,0.0,0.0,552.0,552.0,552.0,552.0,552.0,552.0,342.0
553,553,100042617,Schnettkerbrücke,2018-01-23,51.49925,7.42673,553.0,553.0,553.0,553.0,553.0,553.0,343.0
554,554,100042858,Display,2018-03-22,41.23895579,-8.632939269,554.0,554.0,554.0,554.0,554.0,554.0,344.0
555,555,100042868,Multi,2018-02-23,41.22780975,-8.632614857,555.0,555.0,555.0,555.0,555.0,555.0,345.0
556,556,100042890,Estação,2018-03-23,41.2343917,-8.635428291,556.0,556.0,556.0,556.0,556.0,556.0,346.0
557,557,100042914,East Giralda.,2017-10-13,25.7513483,-80.25727175,557.0,557.0,557.0,557.0,557.0,557.0,347.0
558,558,100042915,West Giralda.,2017-10-13,25.75128259,-80.25814151,558.0,558.0,558.0,558.0,558.0,558.0,348.0
559,559,100043047,Darłowo,2018-02-04,54.41148991,16.396254000000006,559.0,559.0,559.0,559.0,559.0,559.0,349.0
560,560,100043573,Licznik rowerowy - Armii Krajowej,2018-04-23,54.09917220000001,18.7649536,560.0,560.0,560.0,560.0,560.0,560.0,350.0
561,561,100043574,Licznik rowerowy - ul.Gdańska,2018-04-23,54.10124,18.77876,561.0,561.0,561.0,561.0,561.0,561.0,351.0
562,562,100043664,Burberry - 1101 Alberni Street,2018-02-18,49.28539934,-123.1238142,562.0,562.0,562.0,562.0,562.0,562.0,352.0
563,563,100043719,Strellson - 1108 Alberni St,2018-02-22,49.28563523,-123.1244692,563.0,563.0,563.0,563.0,563.0,563.0,353.0
564,564,100043720,Cornerston college - 609 W Hastings St,2018-02-22,49.28502194,-123.1132138,564.0,564.0,564.0,564.0,564.0,564.0,354.0
565,565,100043721,Vancouver Pen Shop - 512 W Hastings St,2018-02-22,49.28413597,-123.1122488,565.0,565.0,565.0,565.0,565.0,565.0,355.0
566,566,100043803,SFU school of Business - 500 Granville St,2018-03-02,49.28447396,-123.1149726,566.0,566.0,566.0,566.0,566.0,566.0,356.0
567,567,100043805,Granville Station- 600 Granville St ,2018-03-02,49.28309024,-123.1170642,567.0,567.0,567.0,567.0,567.0,567.0,357.0
568,568,100044068,Bob Jones Trail,2018-05-05,35.185,-120.704,568.0,568.0,568.0,568.0,568.0,568.0,358.0
569,569,100044104,X2I18034731,2018-03-21,37.09603938,-8.126772908,569.0,569.0,569.0,569.0,569.0,569.0,359.0
570,570,100044105,XSI18034634,2018-04-20,37.07748,-8.11646,570.0,570.0,570.0,570.0,570.0,570.0,360.0
571,571,100044106,XSI18034635,2018-04-21,37.07776936,-8.11616842,571.0,571.0,571.0,571.0,571.0,571.0,361.0
572,572,100044687,............................. Wojska Polskiego,2018-04-23,54.09114,18.7821,572.0,572.0,572.0,572.0,572.0,572.0,362.0
573,573,100044713,Rumble w.o. Nelson YAI18044990,2019-01-28,49.21491,-122.99473,573.0,573.0,573.0,573.0,573.0,573.0,363.0
574,574,100044729,05 Deutzer Brücke kpl.,2016-04-05,50.93649,6.96658,574.0,574.0,574.0,574.0,574.0,574.0,364.0
575,575,100045094,Vorgebirgswall,2018-05-18,50.92054908,6.94476961,575.0,575.0,575.0,575.0,575.0,575.0,365.0
576,576,100045372,Oppstemten,2018-06-29,60.37285441,5.380287571,576.0,576.0,576.0,576.0,576.0,576.0,366.0
577,577,100045471,Brook,2018-07-02,54.00581,11.04333,577.0,577.0,577.0,577.0,577.0,577.0,367.0
578,578,100045472,Klausdorf,2018-07-18,54.40105,13.02003,578.0,578.0,578.0,578.0,578.0,578.0,368.0
579,579,100045818,Eco-Display Rennes Metropole - Place de Bretagne,2018-06-18,48.11003,-1.6841400000000002,579.0,579.0,579.0,579.0,579.0,579.0,369.0
580,580,100045869,Arendalsuka (Arendal sentrum),2019-08-12,58.4597374,8.76477406,580.0,580.0,580.0,580.0,580.0,580.0,370.0
581,581,100046184,Chwarstnica,2018-07-09,53.20733794,14.61512751,581.0,581.0,581.0,581.0,581.0,581.0,371.0
582,582,100046493,ESPOCH001,2018-07-03,-1.67577,-78.64461999999997,582.0,582.0,582.0,582.0,582.0,582.0,372.0
583,583,100046544,Regementsgatan,2018-10-05,55.43102287,13.83076211,583.0,583.0,583.0,583.0,583.0,583.0,373.0
584,584,100046689,Bilker Allee,2012-08-06,51.21074,6.771311,584.0,584.0,584.0,584.0,584.0,584.0,374.0
585,585,100046798,Alexandrastraße,2018-08-10,49.97315,9.15079,585.0,585.0,585.0,585.0,585.0,585.0,375.0
586,586,100047053,Münchener/ Ickeswarder Str,2018-09-05,51.17652,6.809260000000001,586.0,586.0,586.0,586.0,586.0,586.0,376.0
587,587,100047054,Fleher Deich,2018-08-21,51.18775,6.77722,587.0,587.0,587.0,587.0,587.0,587.0,377.0
588,588,100047229,Bishop_Nord (6021) f(x),2018-07-01,45.496894,-73.5761508,588.0,588.0,588.0,588.0,588.0,588.0,378.0
589,589,100047279,Koblenzer Gesamt,2012-08-06,51.14898,6.88668,589.0,589.0,589.0,589.0,589.0,589.0,379.0
590,590,100047280,Oberkasseler Brücke,2012-08-06,51.23166,6.7632,590.0,590.0,590.0,590.0,590.0,590.0,380.0
591,591,100047281,Fleher Deich Rampe,2012-08-06,51.18834,6.775710000000001,591.0,591.0,591.0,591.0,591.0,591.0,381.0
592,592,100047339,Cathcart_Est (6526),2019-07-30,45.50160741,-73.57055875,592.0,592.0,592.0,592.0,592.0,592.0,382.0
593,593,100047355,Ste.Catherine_Est (7834),2018-08-21,0.0,0.0,593.0,593.0,593.0,593.0,593.0,593.0,383.0
594,594,100047356,Kennedy_Est (7836),2019-05-05,36.07845,-94.16919,594.0,594.0,594.0,594.0,594.0,594.0,384.0
595,595,100047369,Argyle Street - Loaner,2018-08-08,0.0,0.0,595.0,595.0,595.0,595.0,595.0,595.0,385.0
596,596,100047459,Catherine/ Cathcart Ouest,2018-07-18,45.50151533,-73.57051814,596.0,596.0,596.0,596.0,596.0,596.0,386.0
597,597,100047467,McGill / Sainte-Catherine côté ouest,2018-08-24,45.50230809,-73.57212139,597.0,597.0,597.0,597.0,597.0,597.0,387.0
598,598,100047468,McGill / Maisonneuve côté est,2018-08-24,45.50295502,-73.57296844,598.0,598.0,598.0,598.0,598.0,598.0,388.0
599,599,100047475,McGill / Président-Kennedy côté ouest,2018-08-24,45.50366376,-73.57425516,599.0,599.0,599.0,599.0,599.0,599.0,389.0
600,600,100047476,Nowe Objezierze,2018-09-05,52.86478813,14.3609413,600.0,600.0,600.0,600.0,600.0,600.0,390.0
601,601,100047514,McGil / Cathcart côté est,2018-08-24,45.50164355,-73.5701871,601.0,601.0,601.0,601.0,601.0,601.0,391.0
602,602,100047517,McGill / Cathcart côté ouest,2018-08-24,45.5014939,-73.57056073,602.0,602.0,602.0,602.0,602.0,602.0,392.0
603,603,100047519,McGill / Sainte-Catherine côté est,2018-08-24,45.50215129,-73.57132402,603.0,603.0,603.0,603.0,603.0,603.0,393.0
604,604,100047523,McGill / Maisonneuve côté ouest,2018-08-24,45.50286559,-73.57339765,604.0,604.0,604.0,604.0,604.0,604.0,394.0
605,605,100047527,McGill / Président-Kennedy côté est,2018-08-24,45.50341751,-73.57455401,605.0,605.0,605.0,605.0,605.0,605.0,395.0
606,606,100047647,Praha - Podolí,2018-09-17,50.05949687,14.41919219,606.0,606.0,606.0,606.0,606.0,606.0,396.0
607,607,100047745,Connect the Crescent,2018-09-20,29.95085,-90.06567,607.0,607.0,607.0,607.0,607.0,607.0,397.0
608,608,100047999,A5123 The Racecourse - TTech Totem,2019-01-08,52.24666,-0.8827299999999999,608.0,608.0,608.0,608.0,608.0,608.0,398.0
609,609,100048274,Hamang – Sandvika,2018-11-09,59.89256517,10.51636226,609.0,609.0,609.0,609.0,609.0,609.0,399.0
610,610,100048275,Skytterdalen,2018-11-09,59.89861063,10.52916643,610.0,610.0,610.0,610.0,610.0,610.0,400.0
611,611,100048276,Holtekilen,2018-11-08,59.90116742,10.61013518,611.0,611.0,611.0,611.0,611.0,611.0,401.0
612,612,100048277,Lommedalsveien,2018-11-07,59.94616287,10.5051809,612.0,612.0,612.0,612.0,612.0,612.0,402.0
613,613,100048278,Gml. Lommedalsvei,2018-11-08,59.93052546,10.49542087,613.0,613.0,613.0,613.0,613.0,613.0,403.0
614,614,100048279,Brynsveien - Kolsås,2018-11-08,59.91559245,10.49958822,614.0,614.0,614.0,614.0,614.0,614.0,404.0
615,615,100048280,Haslum,2018-11-01,59.91993125,10.57808416,615.0,615.0,615.0,615.0,615.0,615.0,405.0
616,616,100048281,Kirkeveien/Bærumsveien,2018-11-08,59.91225997,10.56360911,616.0,616.0,616.0,616.0,616.0,616.0,406.0
617,617,100048282,Bjørnegårdssvingen,2018-11-07,59.9002907,10.49471094,617.0,617.0,617.0,617.0,617.0,617.0,407.0
618,618,100048329,Sandviksveien,2018-10-21,59.88734431,10.51981412,618.0,618.0,618.0,618.0,618.0,618.0,408.0
619,619,100048330,Kjørbo,2018-10-21,59.88642365,10.52365352,619.0,619.0,619.0,619.0,619.0,619.0,409.0
620,620,100048409,2600 blk,2019-01-26,49.26215806,-123.1384832,620.0,620.0,620.0,620.0,620.0,620.0,410.0
621,621,100048410,2700 blk,2019-01-26,49.26124084,-123.1387621,621.0,621.0,621.0,621.0,621.0,621.0,411.0
622,622,100048411,2400 blk,2019-01-26,49.26412898,-123.1388211,622.0,622.0,622.0,622.0,622.0,622.0,412.0
623,623,100048412,2500 blk,2019-01-26,49.26311377,-123.138451,623.0,623.0,623.0,623.0,623.0,623.0,413.0
624,624,100048413,2800 blk,2019-01-26,49.26024658,-123.1385368,624.0,624.0,624.0,624.0,624.0,624.0,414.0
625,625,100048414,3000 blk,2019-01-26,49.25842605,-123.13863870000002,625.0,625.0,625.0,625.0,625.0,625.0,415.0
626,626,100048415,3100 blk,2019-01-26,49.25723217,-123.138966,626.0,626.0,626.0,626.0,626.0,626.0,416.0
627,627,100048416,2900 blk,2019-01-26,49.25942735,-123.1388211,627.0,627.0,627.0,627.0,627.0,627.0,417.0
628,628,100048811,Ernst-Walz-Brücke Querschnitt,2018-10-11,49.40953403,8.676711154,628.0,628.0,628.0,628.0,628.0,628.0,418.0
629,629,100048812,Thedor-Heuss-Brücke Querschnitt,2018-10-11,49.4117917,8.692717007,629.0,629.0,629.0,629.0,629.0,629.0,419.0
630,630,100048813,Rohrbacher Straße Querschnitt,2018-10-11,49.3976824,8.689534723,630.0,630.0,630.0,630.0,630.0,630.0,420.0
631,631,100048814,Liebermannstraße,2018-10-11,49.3963274,8.688098472,631.0,631.0,631.0,631.0,631.0,631.0,421.0
632,632,100048863,Springorumtrasse,2018-11-22,51.46881,7.22925,632.0,632.0,632.0,632.0,632.0,632.0,422.0
633,633,100048864,Wittener Str. stadteinwärts,2018-11-22,51.47985,7.224539999999997,633.0,633.0,633.0,633.0,633.0,633.0,423.0
634,634,100048865,Wittener Str. stadtauswärts,2018-11-22,51.47864000000001,7.2259699999999984,634.0,634.0,634.0,634.0,634.0,634.0,424.0
635,635,100048878,Totem C-31,2018-12-20,41.33863022,2.099739049,635.0,635.0,635.0,635.0,635.0,635.0,425.0
636,636,100049071,Wittener Str. Gesamt,2018-11-22,51.47929181,7.2251914410000015,636.0,636.0,636.0,636.0,636.0,636.0,426.0
637,637,100049119,SAN DONATO,2019-04-20,44.512313,11.386013,637.0,637.0,637.0,637.0,637.0,637.0,427.0
638,638,100049218,Sant Just,2019-01-05,41.37830359,2.080024083,638.0,638.0,638.0,638.0,638.0,638.0,428.0
639,639,100049358,Via Sabotino,2018-12-18,44.497062,11.322866,639.0,639.0,639.0,639.0,639.0,639.0,429.0
640,640,100049600,Totem Esplugues,2019-02-15,41.37740431,2.088721991,640.0,640.0,640.0,640.0,640.0,640.0,430.0
641,641,100049883,Schlierbacher Landstraße,2019-02-01,49.41470485,8.718395942999999,641.0,641.0,641.0,641.0,641.0,641.0,431.0
642,642,100049884,Kurfürstenanlage Nord,2019-02-01,49.4067,8.68863,642.0,642.0,642.0,642.0,642.0,642.0,432.0
643,643,100049885,Kurfürstenanlage Süd,2019-02-01,49.40642825,8.688607322000001,643.0,643.0,643.0,643.0,643.0,643.0,433.0
644,644,100049901,Ziegelhäuser Landstraße,2019-02-01,49.41925887,8.725964292,644.0,644.0,644.0,644.0,644.0,644.0,434.0
645,645,100050003,SPARE,2019-03-01,0.0,0.0,645.0,645.0,645.0,645.0,645.0,645.0,435.0
646,646,100050004,2100 blk,2019-03-01,49.26647788,-123.1383061,646.0,646.0,646.0,646.0,646.0,646.0,436.0
647,647,100050005,2300 blk,2019-03-01,49.2647665,-123.1382469,647.0,647.0,647.0,647.0,647.0,647.0,437.0
648,648,100050006,2200 blk,2018-12-10,49.26587929,-123.1385905,648.0,648.0,648.0,648.0,648.0,648.0,438.0
649,649,100050030,Ernst-Walz-Brücke West - alt,2014-06-01,49.41042582,8.676603857,649.0,649.0,649.0,649.0,649.0,649.0,439.0
650,650,100050626,Preikestolen,2019-03-28,58.98906047,6.185671533,650.0,650.0,650.0,650.0,650.0,650.0,440.0
651,651,100050631,RSW Osna Belm,2019-04-29,52.28016,8.05513,651.0,651.0,651.0,651.0,651.0,651.0,441.0
652,652,100050695,2300 EAST,2001-01-01,0.0,0.0,652.0,652.0,652.0,652.0,652.0,652.0,442.0
653,653,100050750,Kurfürstenanlage Querschnitt,2016-01-01,49.40648754,8.688466278,653.0,653.0,653.0,653.0,653.0,653.0,443.0
654,654,100050813,Josef-Murr-Weg,2019-04-24,47.21598,9.55113,654.0,654.0,654.0,654.0,654.0,654.0,444.0
655,655,100051614,Radschnellweg Landkreis Böblingen,2019-06-01,48.711602,9.081401,655.0,655.0,655.0,655.0,655.0,655.0,445.0
656,656,100051930,Rambla del Celler,2019-05-22,41.47103793,2.084553816,656.0,656.0,656.0,656.0,656.0,656.0,446.0
657,657,100051931,Camí de Can Gatxet,2019-05-22,41.46866638,2.069334984,657.0,657.0,657.0,657.0,657.0,657.0,447.0
658,658,100052416,Preikestolen,2019-02-24,58.98906047,6.185671533,658.0,658.0,658.0,658.0,658.0,658.0,448.0
659,659,100052421,Bradlaugh Fields,2019-01-08,52.26031629999999,-0.87002883,659.0,659.0,659.0,659.0,659.0,659.0,449.0
660,660,100052516,Caswell Road  A508 Kingsthorpe - TTech Totem ,2017-04-24,52.21928116,-0.872794084,660.0,660.0,660.0,660.0,660.0,660.0,450.0
661,661,100052519,A508 Kingsthorpe - TTech Totem,2018-10-01,52.26244661,-0.8998324990000001,661.0,661.0,661.0,661.0,661.0,661.0,451.0
662,662,100052520,A428 Bedford Road - TTech Totem,2018-10-01,52.23273574,-0.883064925,662.0,662.0,662.0,662.0,662.0,662.0,452.0
663,663,100052521,Mare Fair - TTech Totem,2019-01-08,52.23684217,-0.904266695,663.0,663.0,663.0,663.0,663.0,663.0,453.0
664,664,100052521,Mare Fair - TTech Totem,2019-01-08,52.23684217,-0.904266695,664.0,664.0,664.0,664.0,664.0,664.0,454.0
665,665,100053451,Broadway & Promenade - Eco-Display Classic,2019-06-05,33.76911867,-118.1908664,665.0,665.0,665.0,665.0,665.0,665.0,455.0
666,666,100053565,Sarbinowo,2019-07-23,54.24560785,15.928019699999998,666.0,666.0,666.0,666.0,666.0,666.0,456.0
667,667,100053586,Oberbaumbrücke NEW,2016-01-01,52.50177512,13.44568888,667.0,667.0,667.0,667.0,667.0,667.0,457.0
668,668,100054158,Radschnellweg Böblingen/Sindelfingen – Stuttgart,2019-05-30,48.7116,9.0814,668.0,668.0,668.0,668.0,668.0,668.0,458.0
669,669,100054198,Radschnellweg Böblingen/Sindelfingen – Stuttgart,2019-05-30,48.7116,9.0814,669.0,669.0,669.0,669.0,669.0,669.0,459.0
670,670,100054198,Radschnellweg Böblingen/Sindelfingen – Stuttgart,2019-05-30,48.7116,9.0814,670.0,670.0,670.0,670.0,670.0,670.0,460.0
671,671,100117676,Helsehuset,2013-05-09,61.134438,10.440134,671.0,671.0,671.0,671.0,671.0,671.0,0.0
672,672,100117677,Barometer Stationen,2013-06-04,55.87882388,12.85633634,672.0,672.0,672.0,672.0,672.0,672.0,0.0
673,673,100117678,Aarhus,2013-05-28,56.192417000000006,10.185221,673.0,673.0,673.0,673.0,673.0,673.0,0.0
674,674,100117679,Portage Bridge Totem,2013-04-22,45.420258,-75.71219,674.0,674.0,674.0,674.0,674.0,674.0,0.0
675,675,100117680,Totem 01,2015-11-01,49.406723,8.694239999999999,675.0,675.0,675.0,675.0,675.0,675.0,0.0
676,676,100117681,EB Market Totem,2013-02-28,37.776913,-122.41692,676.0,676.0,676.0,676.0,676.0,676.0,0.0
677,677,100117682,New counter 02,1900-01-01,0.0,0.0,677.0,677.0,677.0,677.0,677.0,677.0,0.0
678,678,100117683,Spokane St. Bridge Total,2013-11-24,47.57132761,-122.3493994,678.0,678.0,678.0,678.0,678.0,678.0,0.0
679,679,100117684,Cykelbarometer,2013-06-12,56.688667,16.322333999999998,679.0,679.0,679.0,679.0,679.0,679.0,0.0
680,680,100117685,Schweizerhofquai Totem (604),2011-09-12,47.05418,8.310838,680.0,680.0,680.0,680.0,680.0,680.0,0.0
681,681,100117686,Strathmore Totem,2013-10-18,34.06864,-118.44598,681.0,681.0,681.0,681.0,681.0,681.0,0.0
682,682,100117687,Berliner Platz,2013-07-18,47.6197,7.65932,682.0,682.0,682.0,682.0,682.0,682.0,0.0
683,683,100117688,Eco-Totem _ 1,2013-07-05,69.96548,23.261234,683.0,683.0,683.0,683.0,683.0,683.0,0.0
684,684,100117689,Eco-Totem _ 2,2013-11-19,69.96786999999999,23.369286,684.0,684.0,684.0,684.0,684.0,684.0,0.0
685,685,100117690,Jessheim,2013-12-06,60.143917,11.169752,685.0,685.0,685.0,685.0,685.0,685.0,0.0
686,686,100117691,Lillestrøm,2013-12-16,59.95491,11.039865,686.0,686.0,686.0,686.0,686.0,686.0,0.0
687,687,100117692,Tåsen,2013-11-05,59.9532,10.757,687.0,687.0,687.0,687.0,687.0,687.0,0.0
688,688,100117693,Alvim,2014-02-17,59.274498,11.082512,688.0,688.0,688.0,688.0,688.0,688.0,0.0
689,689,100117694,Jarmyrveien,2013-10-08,59.923824,10.611697,689.0,689.0,689.0,689.0,689.0,689.0,0.0
690,690,100117695,Kolbotn,2013-12-11,59.808533,10.80595,690.0,690.0,690.0,690.0,690.0,690.0,0.0
691,691,100117696,Helsfyr,2013-11-04,59.91367654,10.80230483,691.0,691.0,691.0,691.0,691.0,691.0,0.0
692,692,100117697,Borregårdsbakken,2014-02-11,59.279984,11.125977,692.0,692.0,692.0,692.0,692.0,692.0,0.0
693,693,100117698,Eco-Totem,2013-09-10,51.10531,-115.36724,693.0,693.0,693.0,693.0,693.0,693.0,0.0
694,694,100117699,UiT,2014-05-19,69.67943000000001,18.971754,694.0,694.0,694.0,694.0,694.0,694.0,0.0
695,695,100117700,Jaklins Plass,2014-05-19,69.65265,18.960064000000006,695.0,695.0,695.0,695.0,695.0,695.0,0.0
696,696,100117701,Contador Ciclista Reforma 222 - Ciudad de México,2013-11-16,19.429134,-99.162094,696.0,696.0,696.0,696.0,696.0,696.0,0.0
697,697,100117702,Nygaardsgate,2013-10-18,59.211754000000006,10.938824,697.0,697.0,697.0,697.0,697.0,697.0,0.0
698,698,100117703,Totem ,2013-10-24,48.57406104,7.755221893,698.0,698.0,698.0,698.0,698.0,698.0,0.0
699,699,100117704,Speed counter,2013-11-19,49.13965200000001,9.214609,699.0,699.0,699.0,699.0,699.0,699.0,0.0
700,700,100117705,Totem_Laurier,2013-02-12,45.5277722,-73.58883237,700.0,700.0,700.0,700.0,700.0,700.0,0.0
701,701,100117706,Ernst-Walz-Brücke,2014-06-01,49.40911,8.6766615,701.0,701.0,701.0,701.0,701.0,701.0,0.0
702,702,100117707,Barometer Kirchheim u. Teck,2014-04-17,48.64519,9.451567,702.0,702.0,702.0,702.0,702.0,702.0,0.0
703,703,100117708,Eco Totem,2014-03-03,59.370926,17.962162,703.0,703.0,703.0,703.0,703.0,703.0,0.0
704,704,100117709,Barometer Resecentrum,2014-11-10,59.85758337,17.64600223,704.0,704.0,704.0,704.0,704.0,704.0,0.0
705,705,100117710,Hamarvegen,2014-08-22,61.106728,10.47285,705.0,705.0,705.0,705.0,705.0,705.0,0.0
706,706,100117711,Barometer Kasernplan,2013-06-04,55.87140112,12.82958131,706.0,706.0,706.0,706.0,706.0,706.0,0.0
707,707,100117712,Eco-Totem 01,2014-10-15,47.266834,11.40494,707.0,707.0,707.0,707.0,707.0,707.0,0.0
708,708,100117713,Wiborg atrium,2014-12-01,59.22405,10.952996,708.0,708.0,708.0,708.0,708.0,708.0,0.0
709,709,100117714,Burrard/Cornwall (totem cabinet),2014-06-03,49.272476,-123.145454,709.0,709.0,709.0,709.0,709.0,709.0,0.0
710,710,100117715,Ringvegen,2014-11-03,60.78421,10.692967,710.0,710.0,710.0,710.0,710.0,710.0,0.0
711,711,100117716,Zelt 02,1900-01-01,0.0,0.0,711.0,711.0,711.0,711.0,711.0,711.0,0.0
712,712,100117717,Eco-Totem - SW Path @ Monroe St,2014-10-09,43.067913,-89.41238,712.0,712.0,712.0,712.0,712.0,712.0,0.0
713,713,100117718,Grange Road Totem,2014-09-26,53.286530000000006,-6.2775555,713.0,713.0,713.0,713.0,713.0,713.0,0.0
714,714,100117719,Ansermet Totem,2014-07-08,46.193607,6.1398220000000014,714.0,714.0,714.0,714.0,714.0,714.0,0.0
715,715,100117720,Am Strande,2012-10-01,54.09152283,12.14942155,715.0,715.0,715.0,715.0,715.0,715.0,0.0
716,716,100117721,Bjeredsparken ,2014-09-14,55.70878,13.18425,716.0,716.0,716.0,716.0,716.0,716.0,0.0
717,717,100117722,Sölvegatan,2014-11-11,55.710903,13.202863,717.0,717.0,717.0,717.0,717.0,717.0,0.0
718,718,100117723,Venezia dir centro,2013-02-20,45.473816,9.2043085,718.0,718.0,718.0,718.0,718.0,718.0,0.0
719,719,100117724,Venezia dir Oberdan,2013-02-17,45.473984,9.204523,719.0,719.0,719.0,719.0,719.0,719.0,0.0
720,720,100117725,Eco-Totem 13th at Walnut,2014-07-25,40.01719387,-105.2783267,720.0,720.0,720.0,720.0,720.0,720.0,0.0
721,721,100117726,Bikeometer,2014-03-19,38.89910871,-77.07109065,721.0,721.0,721.0,721.0,721.0,721.0,0.0
722,722,100117727,Asker,2013-11-26,59.83363000000001,10.43706,722.0,722.0,722.0,722.0,722.0,722.0,0.0
723,723,100117728,Mannesmann Ufer-Totem 01,2014-11-01,51.220154,6.7671213,723.0,723.0,723.0,723.0,723.0,723.0,0.0
724,724,100117729,Totem 01,2014-12-15,-34.583454,-58.39204,724.0,724.0,724.0,724.0,724.0,724.0,0.0
725,725,100117730,Galloping Goose Trail - Eco-Totem,2014-12-17,48.432613,-123.3782,725.0,725.0,725.0,725.0,725.0,725.0,461.0
726,726,100117731,Chauss�e de la Madeleine 880 - 881,2013-09-03,47.21172,-1.5529,726.0,726.0,726.0,726.0,726.0,726.0,462.0
727,727,100117732,Wonka_Totem,2013-09-26,50.040184,15.768374,727.0,727.0,727.0,727.0,727.0,727.0,463.0
728,728,100124997,No Counter,,,,728.0,728.0,728.0,728.0,728.0,728.0,464.0
729,729,100115391,Argyle Street,2013-07-01,44.645866,-63.57397,729.0,729.0,729.0,729.0,0.0,,
730,730,100115393,North Barrington Street,2013-11-18,44.64771,-63.57428,730.0,730.0,730.0,730.0,0.0,,
731,731,100115395,South Barrington,2013-12-17,44.641685,-63.571087,731.0,731.0,731.0,731.0,0.0,,
732,732,100005014,KÖ Steinstr,2012-08-06,51.22324,6.7791767000000025,732.0,732.0,0.0,,,,
733,733,100005020,New York City DOT - Manhattan Bridge,2012-09-01,40.69981,-73.98589,733.0,733.0,0.0,,,,
734,734,100005157,Bike Barometer : Portland Hawthorne Bridge,2012-08-08,45.514072,-122.67374,734.0,734.0,0.0,,,,
735,735,100005392,Liningweg,2014-01-01,54.10295,12.07408,735.0,735.0,0.0,,,,
736,736,100005393,Braesigplatz,2014-01-01,54.102818000000006,12.0749855,736.0,736.0,0.0,,,,
737,737,100005394,Langestr,2014-01-01,54.09034000000001,12.13605,737.0,737.0,0.0,,,,
738,738,100005395,Am Strande,2014-01-01,54.09152282594652,12.149421548069586,738.0,738.0,0.0,,,,
739,739,100005493,Neustadtstrasse,2012-11-01,47.0441705,8.308901299999999,739.0,739.0,0.0,,,,
740,740,100005630,Seattle Fremont Bridge,2012-10-10,47.64811,-122.3499,740.0,740.0,0.0,,,,
741,741,100005835,Coronado Bayshore Bikeway NB & SB - Bike,2014-10-29,32.6899,-117.169815,741.0,741.0,0.0,,,,
742,742,100005837,SD Harbor Dr Multi-Use Path EB & WB - Bike,2012-09-20,32.727996999999995,-117.18321,742.0,742.0,0.0,,,,
743,743,100005838,SD River Bike Path EB & WB - Ped,2015-02-09,32.76027,-117.202156,743.0,743.0,0.0,,,,
744,744,100005839,San Marcos Inland Rail Trail EB & WB - Bike,2014-02-05,33.146435,-117.18198999999998,744.0,744.0,0.0,,,,
745,745,100006456,"Tramore Town to Waterford City Bicycle Counter at Pickardstown, Tramore",2012-12-12,52.179386,-7.1361785000000015,745.0,745.0,0.0,,,,
746,746,100006825,Test GMAL,2013-01-01,0.0,0.0,746.0,746.0,0.0,,,,
747,747,100006920,PYRO-Box 1,2014-08-18,38.85273400000001,-104.93855,747.0,747.0,0.0,,,,
748,748,100006921,Rock Island Trail,2013-07-25,38.85895,-104.77684,748.0,748.0,0.0,,,,
749,749,100006922,Urban Post 2,2012-12-29,38.82266,-104.83791,749.0,749.0,0.0,,,,
750,750,100006923,Templeton Gap,2013-08-22,38.88533,-104.80631,750.0,750.0,0.0,,,,
751,751,100007068,Charlottenlund,2013-02-21,69.66585500000001,18.946383,751.0,751.0,0.0,,,,
752,752,100007069,Huon,2013-05-04,56.66785400000001,16.349332999999998,752.0,752.0,0.0,,,,
753,753,100007108,Sandtangen,2013-04-08,58.736355,5.651372,753.0,753.0,0.0,,,,
754,754,100007363,Storgata nord,2013-06-04,61.117523,10.464487,754.0,754.0,0.0,,,,
755,755,100007381,Langvannet,2013-02-13,69.68824000000001,18.986538,755.0,755.0,0.0,,,,
756,756,100007390,Ville de Montréal - Métro Laurier,2013-02-14,45.5277722028042,-73.58883237174379,756.0,756.0,0.0,,,,
757,757,100007395,Stavsjøen,2015-11-26,63.39806,10.739717,757.0,757.0,0.0,,,,
758,758,100007698,Ottawa - Portage Bridge / Pont du Portage - 2014,2014-04-03,45.420258,-75.71219,758.0,758.0,0.0,,,,
759,759,100007834,Bike Counter Data - Market Street Totem (Eastbound),2013-05-09,37.776913,-122.41692,759.0,759.0,0.0,,,,
760,760,100007875,Avenue Marius Berroir,2010-09-01,45.56591,5.9339232000000015,760.0,760.0,0.0,,,,
761,761,100007876,Avenue Comte Vert,2010-09-01,45.573013,5.9078040000000005,761.0,761.0,0.0,,,,
762,762,100007882,Avenue de Lyon,2009-01-20,45.56214350997393,5.911499944921856,762.0,762.0,0.0,,,,
763,763,100008160,Trillium Bayview,2013-05-06,45.410313,-75.72383,763.0,763.0,0.0,,,,
764,764,100008205,Helsehuset,2013-05-09,61.134438,10.440134,764.0,764.0,0.0,,,,
765,765,100008473,Trillium Gladstone,2013-05-06,45.40487,-75.71523,765.0,765.0,0.0,,,,
766,766,100008521,Colorado Springs - Manitou Incline,2013-07-20,38.856888,-104.93223,766.0,766.0,0.0,,,,
767,767,100008522,Pikes peak Greenway @ CC,2014-04-25,38.91164000000001,-104.857765,767.0,767.0,0.0,,,,
768,768,100008546,Kaisaniemi,2013-06-08,60.178238,24.940506,768.0,768.0,0.0,,,,
769,769,100008715,UCLA Strathmore Bike Counter,2013-11-21,34.06864,-118.44598,769.0,769.0,0.0,,,,
770,770,100008731,Kalmar,2013-06-13,56.688667,16.322333999999998,770.0,770.0,0.0,,,,
771,771,100008768,Seattle Spokane Street,2013-11-24,47.571327605450705,-122.349399441073,771.0,771.0,0.0,,,,
772,772,100008914,Schweizerhofquai,2012-01-01,47.05418,8.310838,772.0,772.0,0.0,,,,
773,773,100008928,Sydspissen|,2015-08-04,69.62948,18.91175,773.0,773.0,0.0,,,,
774,774,100008931,Grenseveien gang og sykkelbro,2016-01-14,59.9204,10.79475,774.0,774.0,0.0,,,,
775,775,100008932,Akerselva ved Vøyenbrua,2014-09-03,59.93213000000001,10.758295,775.0,775.0,0.0,,,,
776,776,100009153,Skurubron på Sicklaön,2013-09-05,59.313644,18.21258,776.0,776.0,0.0,,,,
777,777,100009154,Sicklavägen på Sicklön,2013-09-05,59.307236,18.113676,777.0,777.0,0.0,,,,
778,778,100009814,Rocky Mountain Legacy Trail - Canmore Trailhead,2010-08-05,51.134235,-115.40755,778.0,778.0,0.0,,,,
779,779,100009915,UiT,2014-05-19,69.67943000000001,18.971754,779.0,779.0,0.0,,,,
780,780,100009916,Jaklins Plass,2014-05-19,69.65265,18.960064000000006,780.0,780.0,0.0,,,,
781,781,100009928,Contador Ciclista Reforma 222 - Ciudad de México,2013-11-16,19.429134,-99.162094,781.0,781.0,0.0,,,,
782,782,100009931,Moreland Totem Bike Counter,2013-10-15,-37.77995,144.97733,782.0,782.0,0.0,,,,
783,783,100003032,Berri1,2008-01-13,45.516216,-73.56296999999998,783.0,0.0,,,,,
784,784,100003034,Rachel / Papineau,2010-09-29,45.53044782912952,-73.56954036492331,784.0,0.0,,,,,
785,785,100003040,PierDup,2010-10-04,45.50127,-73.54441,785.0,0.0,,,,,
786,786,100003041,CSC (Côte Sainte-Catherine),2010-10-04,45.5149,-73.607506,786.0,0.0,,,,,
787,787,100003042,Parc,2010-10-01,45.51385,-73.58151,787.0,0.0,,,,,
788,788,100003560,San Marcos Inland Rail Trail EB & WB,2014-02-05,33.146637,-117.18356000000001,788.0,0.0,,,,,
789,789,100003561,Oceanside SLR River Trail EB & WB,2014-03-05,33.203396000000005,-117.38739,789.0,0.0,,,,,
790,790,100003562,Escondido Inland Rail Trail EB & WB,2012-03-16,33.119820000000004,-117.09081,790.0,0.0,,,,,
791,791,100003563,Solana Beach Coast Hwy NB & SB,2014-02-04,32.991085,-117.27147,791.0,0.0,,,,,
792,792,100003564,SR 56 Bike Path EB & WB,2015-02-20,32.95814,-117.15307,792.0,0.0,,,,,
793,793,100003565,SD Sorrento Valley Rd NB & SB,2013-11-08,32.91754908,-117.23824478,793.0,0.0,,,,,
794,794,100003566,SD Rose Canyon Bike Path NB & SB,2014-09-05,32.834373,-117.2323,794.0,0.0,,,,,
795,795,100003567,SD E Mission Bay Dr NB & SB,2011-12-03,32.789646000000005,-117.20898000000001,795.0,0.0,,,,,
796,796,100003568,SD River Bike Path EB & WB,2015-02-09,32.760265000000004,-117.2022,796.0,0.0,,,,,
797,797,100003569,Oceanside Pacific St NB & SB,2014-02-04,33.181255,-117.37246,797.0,0.0,,,,,
798,798,100003570,SD Landis St EB & WB,2014-09-16,32.745487,-117.12106999999999,798.0,0.0,,,,,
799,799,100003571,SD Harbor Dr Multi-Use Path EB & WB,2012-09-20,32.72797,-117.18266000000001,799.0,0.0,,,,,
800,800,100003572,SD 30th St NB & SB,2014-12-09,32.741684,-117.13011999999999,800.0,0.0,,,,,
801,801,100003573,SD Harbor Dr Pedestrian Bridge NB & SB,2012-02-09,32.705284000000006,-117.15668500000001,801.0,0.0,,,,,
802,802,100003574,Coronado Bayshore Bikeway NB & SB,2014-10-29,32.69119266,-117.16928712,802.0,0.0,,,,,
803,803,100003575,National City Sweetwater Bike Path EB & WB,2012-09-24,32.657333,-117.070625,803.0,0.0,,,,,
804,804,100003576,Chula Vista Bayshore Bikeway NB & SB,2012-02-07,32.64903891443737,-117.10369832738884,804.0,0.0,,,,,
805,805,100003578,Imperial Beach Palm Avenue EB & WB,2014-01-06,32.58399,-117.130775,805.0,0.0,,,,,
806,806,100003579,SD University Ave EB & WB,2012-02-21,32.74829883117962,-117.16128678671049,806.0,0.0,,,,,
807,807,100003580,Vista Village Drive EB - Bike,2012-05-02,33.20328,-117.24201000000001,807.0,0.0,,,,,
808,808,100003581,Vista Village Drive WB - Bike,2012-05-02,33.203068,-117.24268000000001,808.0,0.0,,,,,
809,809,100003582,Oceanside Blvd EB - Bike,2014-03-04,33.20258,-117.31333000000001,809.0,0.0,,,,,
810,810,100003583,Oceanside Blvd WB - Bike,2014-03-04,33.203194,-117.31156999999999,810.0,0.0,,,,,
811,811,100003584,Del Mar Camino Del Mar SB - Bike,2014-07-14,32.95839,-117.26476000000001,811.0,0.0,,,,,
812,812,100003585,Del Mar Camino Del Mar - Ped Westside,2012-02-09,32.958532399999996,-117.26483300000001,812.0,0.0,,,,,
813,813,100003586,Del Mar Camino Del Mar NB - Bike,2012-02-08,32.958420000000004,-117.26503999999998,813.0,0.0,,,,,
814,814,100003587,Del Mar Camino Del Mar - Ped Eastside,2012-02-09,32.9586213,-117.26484450000001,814.0,0.0,,,,,
815,815,100003588,Del Mar Heights EB - Bike,2013-11-15,32.9554501,-117.2309702,815.0,0.0,,,,,
816,816,100003589,Del Mar Heights WB - Bike,2013-11-15,32.95537410000001,-117.2309472,816.0,0.0,,,,,
817,817,100003590,SD Torrey Pines UCSD NB & SB,2014-01-09,32.87211,-117.243706,817.0,0.0,,,,,
818,818,100003591,SD Gilman Dr SB - Bike,2013-11-12,32.86976,-117.23822,818.0,0.0,,,,,
819,819,100003592,SD Gilman Dr NB - Bike,2013-11-12,32.86976,-117.23801,819.0,0.0,,,,,
820,820,100003593,SD Kearney Villa SB - Bike,2013-11-12,32.75333,-117.20086,820.0,0.0,,,,,
821,821,100003594,SD Kearney Villa NB - Bike,2013-11-12,32.81429,-117.26983,821.0,0.0,,,,,
822,822,100003595,SD Torrey Pines EB - Bike,2014-01-08,32.84831,-117.26348,822.0,0.0,,,,,
823,823,100003596,SD Torrey Pines WB - Bike,2014-01-09,32.85516,-117.2456,823.0,0.0,,,,,
824,824,100003597,La Mesa University Ave WB - Bike,2012-04-18,32.767517,-117.02041000000001,824.0,0.0,,,,,
825,825,100003598,La Mesa University Ave EB - Bike,2012-04-18,32.76747,-117.0208,825.0,0.0,,,,,
826,826,100003599,El Cajon Washington Ave EB - Bike,2012-02-06,32.78757,-116.92934,826.0,0.0,,,,,
827,827,100003600,El Cajon Washington Ave WB - Bike,2012-02-07,32.787712,-116.93004599999999,827.0,0.0,,,,,
828,828,100003601,SD Nimitz Blvd SB,2012-09-19,32.743774,-117.23301000000001,828.0,0.0,,,,,
829,829,100003602,SD Nimitz Blvd NB,2012-09-19,32.743815999999995,-117.2328,829.0,0.0,,,,,
830,830,100003603,SD Pac Hwy SB - Bike,2012-09-13,32.75331,-117.20073000000001,830.0,0.0,,,,,
831,831,100003604,SD Pac Hwy NB - Bike,2012-09-13,32.75323,-117.20055,831.0,0.0,,,,,
832,832,100003605,SD University Ave WB - Bike,2012-09-19,32.748337,-117.15321999999999,832.0,0.0,,,,,
833,833,100003606,SD University Ave EB - Bike,2012-09-19,32.748566,-117.15258,833.0,0.0,,,,,
834,834,100003607,SD 4th SB - Bike,2014-12-15,32.728788218079764,-117.16110128383234,834.0,0.0,,,,,
835,835,100003610,SD Broadway EB & WB - Ped Northside,2014-12-10,32.7157206,-117.1595054,835.0,0.0,,,,,
836,836,100003611,SD Broadway EB & WB - Ped Southside,2012-02-10,32.7156649,-117.15991899999999,836.0,0.0,,,,,
837,837,100003612,SD La Jolla Blvd NB & SB,2012-09-11,32.81429,-117.26973999999998,837.0,0.0,,,,,
838,838,100003613,SD 5th NB - Bike,2014-12-15,32.728739902988444,-117.16035013398852,838.0,0.0,,,,,
839,839,100003679,Av Boisse,2009-01-21,45.58142,5.91151,839.0,0.0,,,,,
840,840,100003680,Av Lyon sens montant,2009-12-31,45.56235,5.9114,840.0,0.0,,,,,
841,841,100003681,Parc Buisson Rond,2009-02-21,45.56139,5.94013,841.0,0.0,,,,,
842,842,100003682,Parc Du Verney,2006-06-08,45.568870000000004,5.91904,842.0,0.0,,,,,
843,843,100003683,Av Lyon sens descendant,2009-12-31,45.56273,5.9081,843.0,0.0,,,,,
844,844,100003684,VV Leysse,2006-06-08,45.56831,5.9398300000000015,844.0,0.0,,,,,
845,845,100003685,leysse us,2006-06-13,45.568474,5.940116400000001,845.0,0.0,,,,,
846,846,100003686,Avenue Verte Nord,2010-08-31,45.585409999999996,5.90442,846.0,0.0,,,,,
847,847,100003687,Croix de Bissy,2010-08-31,45.58254,5.8867199999999995,847.0,0.0,,,,,
848,848,100003688,Comte Vert Est,2011-03-07,45.57293,5.9082,848.0,0.0,,,,,
849,849,100003689,Comte Vert Ouest,2010-09-29,45.57297,5.9076699999999995,849.0,0.0,,,,,
850,850,100003690,Berroir Sud,2012-07-14,45.56574000000001,5.93374,850.0,0.0,,,,,
851,851,100003691,VV Planeurs,2010-09-02,45.55883,5.9826,851.0,0.0,,,,,
852,852,100003692,Berroir Nord,2012-02-23,45.56562,5.93389,852.0,0.0,,,,,
853,853,100003832,Escondido Inland Rail Trail EB & WB - Bike,2012-03-16,33.11996,-117.09037,853.0,0.0,,,,,
854,854,100003842,Del Mar Camino Del Mar - Ped Westside,2012-02-09,0.0,0.0,854.0,0.0,,,,,
855,855,100003845,SD University Ave EB & WB - Ped,2012-02-21,32.748295,-117.16111000000001,855.0,0.0,,,,,
856,856,100003882,Chula Vista Bayshore Bikeway NB & SB - Bike,2012-02-07,32.64239,-117.10181399999999,856.0,0.0,,,,,
857,857,100003925,Mill Valley - Sausalito Path South of Sycamore,2011-01-01,37.89539,-122.52588999999999,857.0,0.0,,,,,
858,858,100004126,VÄSTRA VALLGATAN,2012-04-20,57.108166000000004,12.249027,858.0,0.0,,,,,
859,859,100004165,Erbprinzenstraße,2012-04-25,49.0072864,8.4027153,859.0,0.0,,,,,
860,860,100004308,Cathkins Brae,2012-05-30,55.800518000000004,-4.245685,860.0,0.0,,,,,
861,861,100004534,Bleicherstrasse,2012-11-01,47.04351886,8.30699831,861.0,0.0,,,,,
862,862,100004535,Löwenplatz,2012-11-01,47.05707,8.310312,862.0,0.0,,,,,
863,863,100004536,Baselstrasse,2012-11-01,47.05333243,8.29437638,863.0,0.0,,,,,
864,864,100004538,Inseli,2012-11-01,47.0490463,8.3139376,864.0,0.0,,,,,
865,865,100004539,Palace,2012-11-01,47.0552811,8.3185976,865.0,0.0,,,,,
866,866,100004540,Dammstrasse,2012-11-01,47.052640000000004,8.296418,866.0,0.0,,,,,
867,867,100004575,Brébeuf,2009-07-03,45.527496,-73.57432,867.0,0.0,,,,,
868,868,100004595,Freiburg Wiwilibrücke - Radfahrende im Querschnitt,2012-05-01,47.995213,7.8407526,868.0,0.0,,,,,
869,869,100004691,"Kerékpárszámláló  - Budapest  - Andrássy út, a Nagymező utcánál, befelé - REMOVED",2012-07-03,47.50332,19.060497,869.0,0.0,,,,,
870,870,100004692,"Kerékpárszámláló  - Budapest  - Andrássy út, a Nagymező utcánál, kifelé - REMOVED",2012-07-03,47.503204,19.06038,870.0,0.0,,,,,
871,871,100004857,Licznik rowerowy -  ul. Pomorska,2012-07-10,54.09558000000001,18.7875,871.0,0.0,,,,,
872,872,100001188,Automatische Velozählstellen in Winterthur – Frohbergstrasse,2011-04-30,47.49723,8.726242999999998,0.0,,,,,,
873,873,100001273,Rantaraitti (Pötkä),2017-11-13,62.61425,29.72472,0.0,,,,,,
874,874,100001393,Barcelona - Plaça de Tetuan,2011-05-16,41.39436,2.1759484,0.0,,,,,,
875,875,100001678,Bike Counter Data – Laurier at Metcalfe – Eastbound + Westbound,2011-07-10,45.41985,-75.696075,0.0,,,,,,
876,876,100001753,Notre-Dame,2013-10-17,45.530216,-73.544426,0.0,,,,,,
877,877,100001783,Laurier at Lyon,2011-07-09,45.4170128,-75.7031297,0.0,,,,,,
878,878,100002022,Le Mont-Saint-Michel,2011-07-27,48.63501,-1.5107716,0.0,,,,,,
879,879,100002415,Bike Counter Data Fell at Scott Westbound ,2009-02-10,37.7742,-122.436295,0.0,,,,,,
880,880,100002880,Pont_Jacques_Cartier,2011-11-15,45.5255082563413,-73.5544220271119,0.0,,,,,,
881,881,100002884,Somerset Bridge at O-Train Trillium Line,2011-11-18,45.407295,-75.71799,0.0,,,,,,
882,882,100002963,Al. Zwycięstwa,2013-09-15,54.3712,18.62702,0.0,,,,,,
883,883,100002965,Molo,2013-11-15,54.41369200000001,18.623043,0.0,,,,,,
884,884,100002969,GR62-66 Le Devois,2010-06-09,44.127033,3.4418347,0.0,,,,,,
885,0,100000445,Sabrina Footbridge - Cycle,2011-01-01,52.1945,-2.2316263,,,,,,,
886,0,100000446,Sabrina Footbridge - Pedestrian,2011-01-01,52.1943130493164,-2.23200917243958,,,,,,,
887,0,100000447,Diglis FootBridge - Pedestrian,2011-01-01,52.1764,-2.2243762,,,,,,,
888,0,100000448,Diglis FootBridge - Cycle,2011-01-01,52.177166,-2.2245512,,,,,,,
889,0,100000518,NCC Eastern Canal Pathway Colonel By,2010-01-25,45.4213714599609,-75.6859588623047,,,,,,,
890,0,100000519,NCC Ottawa River Pathway at Prince of Wales Bridge,2010-03-01,45.4120025634766,-75.7229919433594,,,,,,,
891,0,100000986,Langensandbrücke,2012-01-01,47.045435,8.309292,,,,,,,
892,0,100000987,Taubenhaus,2012-01-01,47.042559999999995,8.302307,,,,,,,
