CounterID,CounterTitle,Date,DateChecked,Gap,Lat,Long
100000445,Sabrina Footbridge - Cycle,1/1/2011,,0,52.1945,-2.2316263
100000446,Sabrina Footbridge - Pedestrian,1/1/2011,,1,52.19431305,-2.232009172
100000447,Diglis FootBridge - Pedestrian,1/1/2011,,1,52.1764,-2.2243762
100000448,Diglis FootBridge - Cycle,1/1/2011,,1,52.177166,-2.2245512
100000518,NCC Eastern Canal Pathway Colonel By,1/25/2010,,70,45.42137146,-75.68595886
100000519,NCC Ottawa River Pathway at Prince of Wales Bridge,3/1/2010,,1,45.41200256,-75.72299194
100000986,Langensandbrücke,1/1/2012,,467,47.045435,8.309292
100000987,Taubenhaus,1/1/2012,,1,47.04256,8.302307
100001188,Automatische Velozählstellen in Winterthur – Frohbergstrasse,4/30/2011,,201,47.49723,8.726243
100001273,Rantaraitti (Pötkä),11/13/2017,,85,62.61425,29.72472
100001393,Barcelona - Plaça de Tetuan,5/16/2011,,120,41.39436,2.1759484
100001678,Bike Counter Data – Laurier at Metcalfe – Eastbound + Westbound,7/10/2011,,285,45.41985,-75.696075
100001753,Notre-Dame,10/17/2013,,75,45.530216,-73.544426
100001783,Laurier at Lyon,7/9/2011,,30,45.4170128,-75.7031297
100002022,Le Mont-Saint-Michel,7/27/2011,,239,48.63501,-1.5107716
100002415,Bike Counter Data Fell at Scott Westbound ,2/10/2009,,393,37.7742,-122.436295
100002880,Pont_Jacques_Cartier,11/15/2011,,465,45.52550826,-73.55442203
100002884,Somerset Bridge at O-Train Trillium Line,11/18/2011,,4,45.407295,-75.71799
100002963,Al. Zwycięstwa,9/15/2013,,79,54.3712,18.62702
100002965,Molo,11/15/2013,,2,54.413692,18.623043
100002969,GR62-66 Le Devois,6/9/2010,,4,44.127033,3.4418347
100003032,Berri1,1/13/2008,,63,45.516216,-73.56297
100003034,Rachel / Papineau,9/29/2010,,2,45.53044783,-73.56954036
100003040,PierDup,10/4/2010,,6,45.50127,-73.54441
100003041,CSC (Côte Sainte-Catherine),10/4/2010,,1,45.5149,-73.607506
100003042,Parc,10/1/2010,,1,45.51385,-73.58151
100003560,San Marcos Inland Rail Trail EB & WB,2/5/2014,,518,33.146637,-117.18356
100003561,Oceanside SLR River Trail EB & WB,3/5/2014,,1,33.203396,-117.38739
100003562,Escondido Inland Rail Trail EB & WB,3/16/2012,,1,33.11982,-117.09081
100003563,Solana Beach Coast Hwy NB & SB,2/4/2014,,1,32.991085,-117.27147
100003564,SR 56 Bike Path EB & WB,2/20/2015,,1,32.95814,-117.15307
100003565,SD Sorrento Valley Rd NB & SB,11/8/2013,,1,32.91754908,-117.2382448
100003566,SD Rose Canyon Bike Path NB & SB,9/5/2014,,1,32.834373,-117.2323
100003567,SD E Mission Bay Dr NB & SB,12/3/2011,,1,32.789646,-117.20898
100003568,SD River Bike Path EB & WB,2/9/2015,,1,32.760265,-117.2022
100003569,Oceanside Pacific St NB & SB,2/4/2014,,1,33.181255,-117.37246
100003570,SD Landis St EB & WB,9/16/2014,,1,32.745487,-117.12107
100003571,SD Harbor Dr Multi-Use Path EB & WB,9/20/2012,,1,32.72797,-117.18266
100003572,SD 30th St NB & SB,12/9/2014,,1,32.741684,-117.13012
100003573,SD Harbor Dr Pedestrian Bridge NB & SB,2/9/2012,,1,32.705284,-117.156685
100003574,Coronado Bayshore Bikeway NB & SB,10/29/2014,,1,32.69119266,-117.1692871
100003575,National City Sweetwater Bike Path EB & WB,9/24/2012,,1,32.657333,-117.070625
100003576,Chula Vista Bayshore Bikeway NB & SB,2/7/2012,,1,32.64903891,-117.1036983
100003578,Imperial Beach Palm Avenue EB & WB,1/6/2014,,2,32.58399,-117.130775
100003579,SD University Ave EB & WB,2/21/2012,,1,32.74829883,-117.1612868
100003580,Vista Village Drive EB - Bike,5/2/2012,,1,33.20328,-117.24201
100003581,Vista Village Drive WB - Bike,5/2/2012,,1,33.203068,-117.24268
100003582,Oceanside Blvd EB - Bike,3/4/2014,,1,33.20258,-117.31333
100003583,Oceanside Blvd WB - Bike,3/4/2014,,1,33.203194,-117.31157
100003584,Del Mar Camino Del Mar SB - Bike,7/14/2014,,1,32.95839,-117.26476
100003585,Del Mar Camino Del Mar - Ped Westside,2/9/2012,,1,32.9585324,-117.264833
100003586,Del Mar Camino Del Mar NB - Bike,2/8/2012,,1,32.95842,-117.26504
100003587,Del Mar Camino Del Mar - Ped Eastside,2/9/2012,,1,32.9586213,-117.2648445
100003588,Del Mar Heights EB - Bike,11/15/2013,,1,32.9554501,-117.2309702
100003589,Del Mar Heights WB - Bike,11/15/2013,,1,32.9553741,-117.2309472
100003590,SD Torrey Pines UCSD NB & SB,1/9/2014,,1,32.87211,-117.243706
100003591,SD Gilman Dr SB - Bike,11/12/2013,,1,32.86976,-117.23822
100003592,SD Gilman Dr NB - Bike,11/12/2013,,1,32.86976,-117.23801
100003593,SD Kearney Villa SB - Bike,11/12/2013,,1,32.75333,-117.20086
100003594,SD Kearney Villa NB - Bike,11/12/2013,,1,32.81429,-117.26983
100003595,SD Torrey Pines EB - Bike,1/8/2014,,1,32.84831,-117.26348
100003596,SD Torrey Pines WB - Bike,1/9/2014,,1,32.85516,-117.2456
100003597,La Mesa University Ave WB - Bike,4/18/2012,,1,32.767517,-117.02041
100003598,La Mesa University Ave EB - Bike,4/18/2012,,1,32.76747,-117.0208
100003599,El Cajon Washington Ave EB - Bike,2/6/2012,,1,32.78757,-116.92934
100003600,El Cajon Washington Ave WB - Bike,2/7/2012,,1,32.787712,-116.930046
100003601,SD Nimitz Blvd SB,9/19/2012,,1,32.743774,-117.23301
100003602,SD Nimitz Blvd NB,9/19/2012,,1,32.743816,-117.2328
100003603,SD Pac Hwy SB - Bike,9/13/2012,,1,32.75331,-117.20073
100003604,SD Pac Hwy NB - Bike,9/13/2012,,1,32.75323,-117.20055
100003605,SD University Ave WB - Bike,9/19/2012,,1,32.748337,-117.15322
100003606,SD University Ave EB - Bike,9/19/2012,,1,32.748566,-117.15258
100003607,SD 4th SB - Bike,12/15/2014,,1,32.72878822,-117.1611013
100003610,SD Broadway EB & WB - Ped Northside,12/10/2014,,3,32.7157206,-117.1595054
100003611,SD Broadway EB & WB - Ped Southside,2/10/2012,,1,32.7156649,-117.159919
100003612,SD La Jolla Blvd NB & SB,9/11/2012,,1,32.81429,-117.26974
100003613,SD 5th NB - Bike,12/15/2014,,1,32.7287399,-117.1603501
100003679,Av Boisse,1/21/2009,,66,45.58142,5.91151
100003680,Av Lyon sens montant,12/31/2009,,1,45.56235,5.9114
100003681,Parc Buisson Rond,2/21/2009,,1,45.56139,5.94013
100003682,Parc Du Verney,6/8/2006,,1,45.56887,5.91904
100003683,Av Lyon sens descendant,12/31/2009,,1,45.56273,5.9081
100003684,VV Leysse,6/8/2006,,1,45.56831,5.93983
100003685,leysse us,6/13/2006,,1,45.568474,5.9401164
100003686,Avenue Verte Nord,8/31/2010,,1,45.58541,5.90442
100003687,Croix de Bissy,8/31/2010,,1,45.58254,5.88672
100003688,Comte Vert Est,3/7/2011,,1,45.57293,5.9082
100003689,Comte Vert Ouest,9/29/2010,,1,45.57297,5.90767
100003690,Berroir Sud,7/14/2012,,1,45.56574,5.93374
100003691,VV Planeurs,9/2/2010,,1,45.55883,5.9826
100003692,Berroir Nord,2/23/2012,,1,45.56562,5.93389
100003832,Escondido Inland Rail Trail EB & WB - Bike,3/16/2012,,140,33.11996,-117.09037
100003842,Del Mar Camino Del Mar - Ped Westside,2/9/2012,,10,0,0
100003845,SD University Ave EB & WB - Ped,2/21/2012,,3,32.748295,-117.16111
100003882,Chula Vista Bayshore Bikeway NB & SB - Bike,2/7/2012,,37,32.64239,-117.101814
100003925,Mill Valley - Sausalito Path South of Sycamore,1/1/2011,,43,37.89539,-122.52589
100004126,VÄSTRA VALLGATAN,4/20/2012,,201,57.108166,12.249027
100004165,Erbprinzenstraße,4/25/2012,,39,49.0072864,8.4027153
100004308,Cathkins Brae,5/30/2012,,143,55.800518,-4.245685
100004534,Bleicherstrasse,11/1/2012,,226,47.04351886,8.30699831
100004535,Löwenplatz,11/1/2012,,1,47.05707,8.310312
100004536,Baselstrasse,11/1/2012,,1,47.05333243,8.29437638
100004538,Inseli,11/1/2012,,2,47.0490463,8.3139376
100004539,Palace,11/1/2012,,1,47.0552811,8.3185976
100004540,Dammstrasse,11/1/2012,,1,47.05264,8.296418
100004575,Brébeuf,7/3/2009,,35,45.527496,-73.57432
100004595,Freiburg Wiwilibrücke - Radfahrende im Querschnitt,5/1/2012,,20,47.995213,7.8407526
100004691,"Kerékpárszámláló  - Budapest  - Andrássy út, a Nagymező utcánál, befelé - REMOVED",7/3/2012,,96,47.50332,19.060497
100004692,"Kerékpárszámláló  - Budapest  - Andrássy út, a Nagymező utcánál, kifelé - REMOVED",7/3/2012,,1,47.503204,19.06038
100004857,Licznik rowerowy -  ul. Pomorska,7/10/2012,,165,54.09558,18.7875
100005014,KÖ Steinstr,8/6/2012,,157,51.22324,6.7791767
100005020,New York City DOT - Manhattan Bridge,9/1/2012,,6,40.69981,-73.98589
100005157,Bike Barometer : Portland Hawthorne Bridge,8/8/2012,,137,45.514072,-122.67374
100005392,Liningweg,1/1/2014,,235,54.10295,12.07408
100005393,Braesigplatz,1/1/2014,,1,54.102818,12.0749855
100005394,Langestr,1/1/2014,,1,54.09034,12.13605
100005395,Am Strande,1/1/2014,,1,54.09152283,12.14942155
100005493,Neustadtstrasse,11/1/2012,,98,47.0441705,8.3089013
100005630,Seattle Fremont Bridge,10/10/2012,,137,47.64811,-122.3499
100005835,Coronado Bayshore Bikeway NB & SB - Bike,10/29/2014,,205,32.6899,-117.169815
100005837,SD Harbor Dr Multi-Use Path EB & WB - Bike,9/20/2012,,2,32.727997,-117.18321
100005838,SD River Bike Path EB & WB - Ped,2/9/2015,,1,32.76027,-117.202156
100005839,San Marcos Inland Rail Trail EB & WB - Bike,2/5/2014,,1,33.146435,-117.18199
100006456,"Tramore Town to Waterford City Bicycle Counter at Pickardstown, Tramore",12/12/2012,,617,52.179386,-7.1361785
100006825,Test GMAL,1/1/2013,,369,0,0
100006920,PYRO-Box 1,8/18/2014,,95,38.852734,-104.93855
100006921,Rock Island Trail,7/25/2013,,1,38.85895,-104.77684
100006922,Urban Post 2,12/29/2012,,1,38.82266,-104.83791
100006923,Templeton Gap,8/22/2013,,1,38.88533,-104.80631
100007068,Charlottenlund,2/21/2013,,145,69.665855,18.946383
100007069,Huon,5/4/2013,,1,56.667854,16.349333
100007108,Sandtangen,4/8/2013,,39,58.736355,5.651372
100007363,Storgata nord,6/4/2013,,255,61.117523,10.464487
100007381,Langvannet,2/13/2013,,18,69.68824,18.986538
100007390,Ville de Montréal - Métro Laurier,2/14/2013,,9,45.5277722,-73.58883237
100007395,Stavsjøen,11/26/2015,,5,63.39806,10.739717
100007698,Ottawa - Portage Bridge / Pont du Portage - 2014,4/3/2014,,303,45.420258,-75.71219
100007834,Bike Counter Data - Market Street Totem (Eastbound),5/9/2013,,136,37.776913,-122.41692
100007875,Avenue Marius Berroir,9/1/2010,,41,45.56591,5.9339232
100007876,Avenue Comte Vert,9/1/2010,,1,45.573013,5.907804
100007882,Avenue de Lyon,1/20/2009,,6,45.56214351,5.911499945
100008160,Trillium Bayview,5/6/2013,,278,45.410313,-75.72383
100008205,Helsehuset,5/9/2013,,45,61.134438,10.440134
100008473,Trillium Gladstone,5/6/2013,,268,45.40487,-75.71523
100008521,Colorado Springs - Manitou Incline,7/20/2013,,48,38.856888,-104.93223
100008522,Pikes peak Greenway @ CC,4/25/2014,,1,38.91164,-104.857765
100008546,Kaisaniemi,6/8/2013,,24,60.178238,24.940506
100008715,UCLA Strathmore Bike Counter,11/21/2013,,169,34.06864,-118.44598
100008731,Kalmar,6/13/2013,,16,56.688667,16.322334
100008768,Seattle Spokane Street,11/24/2013,,37,47.57132761,-122.3493994
100008914,Schweizerhofquai,1/1/2012,,146,47.05418,8.310838
100008928,Sydspissen|,8/4/2015,,14,69.62948,18.91175
100008931,Grenseveien gang og sykkelbro,1/14/2016,,3,59.9204,10.79475
100008932,Akerselva ved Vøyenbrua,9/3/2014,,1,59.93213,10.758295
100009153,Skurubron på Sicklaön,9/5/2013,,221,59.313644,18.21258
100009154,Sicklavägen på Sicklön,9/5/2013,,1,59.307236,18.113676
100009814,Rocky Mountain Legacy Trail - Canmore Trailhead,8/5/2010,,660,51.134235,-115.40755
100009915,UiT,5/19/2014,,101,69.67943,18.971754
100009916,Jaklins Plass,5/19/2014,,1,69.65265,18.960064
100009928,Contador Ciclista Reforma 222 - Ciudad de México,11/16/2013,,12,19.429134,-99.162094
100009931,Moreland Totem Bike Counter,10/15/2013,,3,-37.77995,144.97733
100010066,Rocky Mountain Legacy Trail – Canmore Trailhead,8/6/2010,,135,51.105335,-115.3673
100010113,Mosseveien,10/25/2013,,47,59.216606,10.92417
100010223,North Barrington Street,11/19/2013,,110,44.64771,-63.57428
100010264,Borregårdsbakken,2/11/2014,,41,59.279984,11.125977
100010265,Alvim,2/1/2014,,1,59.274498,11.082512
100010268,Tåsen,11/5/2013,,3,59.9532,10.757
100010269,Helsfyr,11/1/2013,,1,59.91367654,10.80230483
100010270,Jessheim sentrum,12/6/2013,,1,60.143917,11.169752
100010271,Skedsmo Rådhus,12/16/2013,,1,59.95491,11.039865
100010272,Asker stasjon,11/18/2013,,1,59.83363,10.43706
100010273,Skiveien Kolbotn,12/11/2013,,1,59.808533,10.80595
100010274,Jarmyra,10/8/2013,,1,59.923824,10.611697
100010337,Ooppera,10/25/2013,,63,60.18197,24.93145
100010638,MIGUEL CLARO,7/28/2015,,301,-33.439743,-70.61783
100010640,ANTONIO VARAS,3/29/2015,,2,-33.440807,-70.61324
100010641,MARIN,3/29/2015,,1,-33.444214,-70.62786
100010642,RICARDO LYON,3/29/2015,,1,-33.427055,-70.6079
100010646,ANDRES BELLO,3/29/2015,,4,-33.424118,-70.62054
100010651,Transcona Trail,10/11/2013,,5,49.903347,-97.023636
100010652,Bishop Grandin 2,10/14/2013,,1,49.8277,-97.12732
100010653,Yellow Ribbon Greenway,10/15/2013,,1,49.88936,-97.25276
100010654,BG01Zelt,10/15/2013,,1,49.820908,-97.14479
100010655,Northeast Pioneer 2,10/9/2013,,1,49.92504,-97.07647
100010656,Northeast Pioneer 3,10/8/2013,,1,49.93722,-97.06102
100010657,Northeast Pioneer 1,10/9/2013,,1,49.914238,-97.0902
100010658,BG03Zelt,10/14/2013,,1,49.83904,-97.08915
100010659,Harte Trail 2,10/16/2013,,1,49.84438,-97.25629
100010660,Harte Trail 1,10/16/2013,,1,49.846264,-97.29439
100011008,Murchie's,11/22/2013,,348,48.424946,-123.36785
100011009,Market Square,11/22/2013,,1,48.427856,-123.36888
100011010,TD,11/21/2013,,1,48.424362,-123.36569
100011422,Hemlock,11/13/2013,,412,45.44655456,-75.66911306
100011427,Sherbourne SB at Gerrard,12/9/2012,,5,43.66185,-79.372635
100011428,Sherbourne NB at Gerrard,12/3/2012,,1,43.66707,-79.37466
100011429,Sherbourne NB at Wellesley,12/3/2012,,1,43.66769,-79.37482
100011605,Mühlendamm-Flußbad,1/1/2014,,176,54.083782,12.153115
100011619,WS,9/15/2013,,14,54.3971,18.569721
100011631,Kirchfeldstraße,12/11/2013,,12,51.21246,6.7707596
100011632,Lohauser Deich,12/9/2013,,1,51.2767,6.71411
100011637,Christophstr.,12/18/2014,,5,51.196228,6.79654
100011747,Saint-Antoine,10/22/2013,,110,45.50625,-73.557785
100011748,René-Lévesque,10/29/2013,,1,45.516968,-73.55404
100011749,Viger,10/30/2013,,1,45.505943,-73.56027
100011783,Maisonneuve_3,11/2/2013,,34,45.470493,-73.609566
100011851,Veitvet,9/24/2013,,68,59.9457,10.8452
100011852,Mosseveien,10/4/2013,,1,59.8845,10.7691
100011853,Nygaardsgata,9/22/2013,,1,59.211754,10.938824
100011854,Mosseveien,10/25/2013,,1,59.216606,10.92417
100011934,Spring Garden - South,4/1/2016,,80,44.642586,-63.57839
100011935,Spring Garden - North,1/25/2014,,1,44.643093,-63.577305
100011984,Stoltzekleiven,2/6/2014,,49,60.41202,5.3348384
100011985,Ernst-Walz-Brücke,6/1/2014,,1,49.40911,8.6766615
100012015,South Barrington,12/18/2013,,30,44.641685,-63.571087
100012016,George Street,12/18/2013,,1,44.648937,-63.573128
100012079,Cawston St corridor,4/12/2014,,63,49.89173,-119.48883
100012161,Plöck,11/1/2015,,82,49.40913,8.698543
100012217,Rachel / Hôtel de Ville,10/16/2013,,56,45.519684,-73.58022
100012218,Boyer,11/1/2013,,1,45.53365,-73.59459
100012285,North Upper Water,1/19/2014,,67,44.649654,-63.573208
100012286,South Lower Water,1/20/2014,,1,44.643673,-63.569542
100012340,Bygdetunet,1/23/2017,,54,59.80585338,10.2990891
100012585,Argyle Street,12/3/2013,,245,44.645866,-63.57397
100012608,Gaisbergstraße,11/1/2015,,23,49.406723,8.69424
100012754,Urban Post 01,5/7/2018,,146,48.7573746,-3.4634812
100012756,Urban Post 02,2/4/2014,,2,38.82266928,-104.8384025
100012757,Ute Valley PineCliff,4/24/2014,,1,38.911034,-104.84947
100012758,Ute Valley Main Parking Lot,4/23/2014,,1,38.924854,-104.85724
100012785,Frankton Track,7/1/2014,,27,-45.034714,168.67975
100012787,Multi 01,5/7/2014,,2,38.84797,-104.82859
100012893,Arlington Key Bridge - Bicycle Counts,8/10/2011,,106,0,0
100013031,Hamarvegen,8/22/2014,,138,61.106728,10.47285
100013034,Mannheimer Straße,11/1/2015,,3,49.4118,8.65914
100013099,Ped Bridge 1,5/20/2014,,65,44.64919151,-63.5712473
100013436,Sherbourne SB at  Wellesley,12/3/2012,,337,43.66123,-79.372215
100013460,NCC Alexandra Bridge Cycle Track,6/5/2009,,24,45.429188,-75.70199
100013524,Wiborg atrium,12/1/2014,,64,59.22405,10.952996
100013678,Dovrefjell 1-Grønbakken,6/13/2014,,154,62.26882,9.59703
100013679,Dovrefjell 2 vårstigen,6/13/2014,,1,62.36166,9.64761
100013680,Rennebu-Voll,6/18/2014,,1,62.81606,9.97633
100013681,Eidsvoll,6/1/2015,,1,60.29821,11.18506
100013682,Trondheim-Kastberga,5/9/2014,,1,63.36119,10.30233
100013683,Orkanger-Svorkmo,7/15/2014,,1,63.18604,9.82848
100013684,Hamar- Prøysenskogen,5/27/2014,,1,60.9172,10.84115
100013685,Granavollen- Kittelsrud,5/9/2014,,1,60.49597,10.59812
100013686,Gudbrandsdalen-Øyer,5/28/2014,,1,61.28738,10.40014
100013687,Stiklestad-Munkeby,5/9/2014,,1,63.74973,11.43783
100013732,König-Karls-Brücke,7/1/2012,,45,48.798843,9.209901
100013755,Escondido Inland Rail Trail EB & WB - Ped,2/5/2014,,23,33.1198,-117.090904
100013756,San Marcos Inland Rail Trail EB & WB - Ped,2/4/2014,,1,33.146725,-117.18393
100013757,Oceanside SLR River Trail EB & WB - Ped,3/5/2014,,1,33.20438,-117.38639
100013758,SD River Bike Path EB & WB - Bike,2/9/2015,,1,32.760433,-117.20149
100013759,Coronado Bayshore Bikeway NB & SB - Ped,10/29/2014,,1,32.68912,-117.16978
100013760,SD Harbor Drive Multi-Use Path EB & WB - Ped,1/5/2014,,1,32.72778,-117.18244
100013761,Chula Vista Bayshore Bikeway NB & SB - Ped,2/7/2012,,1,32.641544,-117.10147
100013817,Peace Bridge,4/23/2014,,56,51.05356,-114.07836
100013833,Old Lower Shotover River Track,7/1/2014,,16,-44.99658,168.75781
100013834,Kelvin Peninsula New,7/1/2014,,1,-45.03083,168.70834
100013835,Riverside Road New,7/1/2014,,1,-45.03185,168.7432
100013990,Waterfront Walkway,6/26/2014,,155,49.89629,-119.49989
100013992,City Park Multi,12/1/2013,,2,49.881157,-119.50341
100013994,Bernard Ave south sidewalk,7/18/2014,,2,49.886208,-119.48899
100013995,Bernard Ave north sidewalk,9/14/2013,,1,49.88634215,-119.4887544
100014077,Oceanside SLR River Trail EB & WB - Bike,3/4/2014,,82,33.203285,-117.38744
100014096,Imperial Beach Bayshore Bikeway EB & WB,5/16/2014,,19,32.589554,-117.11067
100014228,Sunset Dr N of Brandts Creek Crosswalk,5/21/2013,,132,49.89666,-119.49852
100014230,Bennett Bridge Walkway,8/26/2013,,2,49.880573,-119.50381
100014231,Abbott St Corridor,5/27/2013,,1,49.87799,-119.49688
100014511,FR2 Güterbahnradweg / Ferdinand-Weiß-Straße - Radfahrende im Querschnitt,8/1/2014,,280,47.998592,7.8220816
100014557,Tverrløypa Nybu,6/8/2015,,46,61.115067,10.48515
100014585,FR1 Dreisamradweg / Hindenburgstraße - Radfahrende im Querschnitt,8/1/2014,,28,47.99054,7.8623013
100014631,Coastal Community,10/9/2014,,46,48.424526,-123.36333
100014632,Friends of Bears,10/10/2014,,1,48.426754,-123.36506
100014633,Monk Office,10/11/2014,,1,48.424416,-123.3625
100014670,Village Gaulois : Combo2,7/4/2014,,37,48.78507632,-3.52609939
100014679,Ylisoutajan silta,7/3/2014,,9,62.59422634,29.75747177
100015128,City of Boulder - 13th at Walnut,8/25/2014,,449,40.01719387,-105.2783267
100015266,Gilhusodden,8/4/2014,,138,59.74693004,10.26713487
100015388,CITIX,9/5/2014,,122,44.648663,-63.570892
100015584,Portsmouth Road,1/1/2001,,196,0,0
100015585,Horsefair,1/1/2001,,1,0,0
100015586,Marsh Lane,1/1/2001,,1,0,0
100015729,Cherry Street,8/25/2014,,143,43.44645,-80.51071
100015778,Morven Ferry Rd Intersection,7/1/2014,,49,-44.992813,168.85516
100015779,Swain Bridge,7/1/2014,,1,-44.96687,168.85442
100015780,Speargrass Flat Road,7/1/2014,,1,-44.960773,168.80653
100015781,Billies Bridge,7/1/2014,,1,-45.0038,168.80299
100016107,Lauttasaarentie,10/15/2014,,326,60.161415,24.893135
100016151,George Street,9/15/2014,,44,44.64887,-63.57333
100016157,Monolittvn ved Frognerparken,11/5/2014,,6,59.92944,10.695102
100016158,Østensjøvn ved Brynseng,10/16/2014,,1,59.9091,10.8146
100016159,Ullevålsvn 19,10/28/2014,,1,59.92075,10.74236
100016160,Maridalsvn nord for Fredensborgvn,10/8/2014,,1,59.92314,10.75075
100016161,Ekebergvn 160,10/29/2014,,1,59.87886,10.78758
100016261,Rocky Mountain,10/11/2014,,100,48.42377,-123.368
100016262,Canada Post,10/11/2014,,1,48.426178,-123.3643
100016421,Moss-Mosskogen,11/26/2014,,159,59.4562,10.67886
100016422,Moss-RyggeTelemarkslund-Ekeby,11/27/2014,,1,59.38752,10.66918
100016424,Mannesmann Ufer-Totem 01,10/19/2014,,2,51.220154,6.7671213
100016667,Aleksanterinkatu,10/30/2014,,243,60.168934,24.94585
100016669,Vanha Ylioppilastalo,10/30/2014,,2,60.16891,24.940344
100016673,Forumin tunneli,10/30/2014,,4,60.169228,24.938232
100016754,"Madison, WI – Eco-Totem on the Southwest Path at Monroe Street",10/6/2014,,81,43.067913,-89.41238
100016786,Chr Michelsens gt nordside,10/13/2014,,32,59.92886,10.77053
100016789,Chr Michelsens gt sydside,10/11/2014,,3,59.92863,10.7702
100016790,Maridalsvn ved Carl Kjelsens vei,10/7/2014,,1,59.9547,10.76124
100016795,St Georges Road,4/16/2015,,5,-37.775917,144.98993
100016888,Capital Crescent Trail #1,11/13/2014,,93,38.9795,-77.09676
100016908,Facultad de Derecho,12/15/2014,,20,-34.583454,-58.39204
100016909,Shoal Creek,10/31/2014,,1,30.308067,-97.74795
100016910,Duval,10/30/2014,,1,30.29499,-97.73214
100016911,Manor,11/1/2014,,1,30.284151,-97.719925
100016912,Guadalupe,2/28/2015,,1,30.28419,-97.74187
100016914,S 1st St,11/1/2014,,2,30.26187,-97.7483
100016915,S 1st St 2,11/1/2014,,1,30.26185,-97.74842
100017105,Leon Creek at Prue Road,11/17/2014,,190,29.541576,-98.63145
100017106,Salado Creek at Blanco Road,11/18/2014,,1,29.563576,-98.51931
100017127,Argyle Street,12/6/2013,,21,44.646038,-63.574127
100017151,Churchill @ Byron,10/20/2014,,24,45.38968877,-75.75237469
100017181,7 Street South Cycle Track,12/11/2014,,30,51.050327,-114.0784
100017341,W'münde Wetterwarte,11/25/2014,,160,54.17664,12.05835
100017523,Saint-Urbain,11/8/2014,,182,45.5193951,-73.58866311
100017789,Hippodrome (chemin de halage),1/19/2015,,266,45.76754,4.908551
100017799,Holmenkollen Nasjonalanlegg,12/8/2014,,10,59.96497,10.669804
100017862,Taubenheim Str. von Kursaal,12/19/2016,,63,48.80535826,9.226311009
100017863,Waiblinger Str. Ri. Fellbach,12/19/2016,,1,48.8053201,9.2266209
100017946,South Keys Bridge,11/23/2014,,83,45.35406,-75.658844
100018241,Rustadsaga,12/10/2014,,295,59.872997,10.856118
100018242,Sognsvann,12/10/2014,,1,59.968693,10.731999
100018264,New counter 01,1/1/1900,,22,0,0
100018267,600 Penn,4/15/2016,,3,40.442806,-80.00173
100018268,900 Penn,4/15/2016,,1,40.444187,-79.99679
100018269,1200 Penn,4/15/2016,,1,40.44608,-79.991714
100018487,Peace Bridge Cyclist Counts,4/24/2014,,218,51.05354,-114.07838
100018531,South Barrington Temp,11/30/2014,,44,44.641,-63.57
100019208,Imperial Beach Bayshore Bikeway EB & WB - Bike,5/16/2014,,677,32.589527,-117.1102
100019209,National City Sweetwater Bike Path EB & WB - Bike,9/24/2012,,1,32.657387,-117.071625
100019210,National City Sweetwater Bike Path EB & WB - Ped,9/24/2012,,1,32.65724,-117.07013
100019211,Imperial Beach Bayshore Bikeway EB & WB - Ped,5/16/2014,,1,32.589455,-117.11242
100019274,SD Sorrento Valley Rd NB & SB - Bike,11/8/2013,,63,32.91741,-117.23814
100019275,Del Mar Camino Del Mar - Ped Eastside,2/9/2012,,1,0,0
100019325,Loaner1537,2/24/2015,,50,36.008217,-95.93165
100019385,Coventry Bridge,2/9/2015,,60,45.41887,-75.652855
100019720,5.03 BN - Nordbrücke (Südseite),5/1/2015,,335,50.75490458,7.096788329
100019721,5.04 BN - Nordbrücke (Nordseite),5/1/2015,,1,50.75769827,7.101340951
100019722,5.05 BN - Südbrücke (Südseite),5/1/2015,,1,50.71546283,7.142160723
100019723,5.06 BN - Südbrücke (Nordseite),5/1/2015,,1,50.719436,7.144403348
100019724,5.07 BN - Estermannufer,5/1/2015,,1,50.7680718,7.068537905
100019725,5.10 BN - Bröhltalweg,5/1/2015,,1,50.742508,7.113626
100019726,5.11 BN - Brühler Straße,6/1/2015,,1,50.740383,7.069422
100019727,5.12 BN - Straßenburger Weg,7/1/2015,,1,50.71930388,7.113497309
100019728,5.08 BN - Von-Sandt-Ufer,6/1/2015,,1,50.700893,7.166909
100019729,5.09 BN - Rhenusallee,6/1/2015,,1,50.72213,7.134297
100019731,2.08 RSK - Neunk.-Seelscheid,7/3/2015,,2,50.874657,7.331745
100019732,2.01 RSK - Windeck,8/22/2015,,1,50.80748,7.59644
100019733,2.02 RSK - Hennef,6/29/2015,,1,50.773903,7.3775787
100019734,2.03 RSK - Sankt Augustin,7/18/2015,,1,50.79667,7.1651273
100019735,2.04 RSK - Niederkassel,9/10/2015,,1,50.799595,7.0360007
100019736,2.06 RSK - Bornheim,9/11/2015,,1,50.76238,6.972411
100019737,2.07 RSK - Lohmar,6/2/2015,,1,50.82845791,7.205303138
100019738,2.05 RSK - Königswinter,9/10/2015,,1,50.67356,7.1916995
100019739,2.09 RSK - Meckenheim,9/10/2015,,1,50.62785782,6.988360034
100019740,2.10 RSK - Wachtberg,7/17/2015,,1,50.64481,7.099431
100019755,6.02 K - Vorgebirgspark,5/31/2015,,15,50.913017,6.948681
100019756,6.03 K - Alphons-Sibermann-Weg,5/27/2015,,1,50.930084,6.930417
100019757,6.04 K - Stadtwald,5/22/2015,,1,50.933098,6.8929157
100019758,6.05 K - Niederländer Ufer,5/28/2015,,1,50.962322,6.986403
100019777,ANTOFAGASTA EN BICICLETA,4/28/2015,,19,-23.59598,-70.39641
100019778,BUSTAMANTE,3/29/2015,,1,-33.43926389,-70.63201315
100019809,5.01 BN - Kennedybrücke (Nordseite),4/1/2015,,31,50.73871332,7.11321441
100019810,5.02 BN - Kennedybrücke (Südseite) Barometer,4/1/2015,,1,50.7376322,7.106626754
100020095,5 Street North of 10 Ave SW,6/18/2015,,285,51.044643,-114.073906
100020103,Stephen Avenue Bicycle Counts,10/23/2014,,8,51.045803,-114.06171
100020104,Stephen Avenue Car Counts,10/20/2014,,1,51.04554,-114.063644
100020198,Aksla,7/1/2015,,94,69.63816,18.999384
100020199,Dalbergstien,7/1/2015,,1,69.63743973,18.98638926
100020201,Stephen Avenue Bicycle Counts,10/23/2014,,2,51.045574,-114.06489
100020207,Stephen Avenue Counts,10/22/2014,,6,51.045563,-114.06445
100020243,Stephen Avenue Car & Cyclist Counts,10/23/2014,,36,51.045555,-114.06421
100020479,POCURO,3/29/2015,,236,-33.43508,-70.60382
100020660,Y2H15037455,3/30/2016,,181,51.048805,-114.08899
100020661,10 St North of 5 Ave NW,3/22/2016,,1,51.05897537,-114.0854958
100020865,"Madison, WI – Eco-Totem on the Capital City Trail at North Shore Dr.",6/23/2015,,204,43.06741,-89.38508
100020873,Capital Crescent Trail #2,2/11/2015,,8,38.94307,-77.11566
100020981,Seattle Fremont Bridge,10/8/2012,,108,47.64811715,-122.3498142
100020993,SWCT Permanent Counter,5/29/2015,,12,30.26228,-97.68429
100020994,JCT Permanent Counter,5/29/2015,,1,30.27602,-97.77029
100020995,Boardwalk Permanent Counter,5/29/2015,,1,30.25478612,-97.74266339
100021131,Bordan Street,12/22/2014,,136,43.440197,-80.47681
100021132,Queen Street,12/22/2014,,1,43.44348,-80.49607
100021143,Kennedybrücke,4/1/2015,,11,50.73819495,7.110285443
100021182,Østensjøvn ved Østensjøvannet,9/8/2015,,39,59.8941,10.8328
100021183,Jon Smestads vei 4,5/13/2015,,1,59.93746,10.680129
100021184,Bærumsveien 22,5/15/2015,,1,59.926468,10.634876
100021185,Ullern gårdsvei 40,5/13/2015,,1,59.925081,10.646841
100021390,Vækerøveien 146A,7/10/2015,,205,59.93625,10.63983
100021391,Hoffsveien,5/21/2015,,1,59.93059,10.6759
100021392,Cykelbarometer,5/8/2016,,1,59.398705,17.982925
100021426,SS-22 State St. North Side,5/29/2015,,34,43.074787,-89.387405
100021427,SS-23 State St. South Side,5/29/2015,,1,43.07469,-89.38772
100021607,Hickory Bridge,5/3/2015,,180,45.39817,-75.709984
100021727,6.01 K - Alfred Schütte kpl,5/18/2015,,120,50.914497,6.9818854
100022012,Mobil sykkelteller,6/15/2015,,285,61.09907349,10.4852105
100022226,01 Bonner Straße Rad,2/28/2012,,214,0,0
100022305,Storgata_Lilletorget,7/15/2015,,79,61.11565332,10.48515532
100022540,5 Street North of 5 Ave SW Perm,6/17/2015,,235,51.049423,-114.07359
100022541,5 Street North of 15 Ave SW Perm,6/16/2015,,1,51.039036,-114.07439
100022543,5 St North of 10 Ave,6/16/2015,,2,51.043907,-114.07388
100022547,8 Ave West of 8 St SW EB,6/10/2015,,4,51.046043,-114.0817
100022580,12 Ave West of 2 St SW Perm,6/16/2015,,33,51.041634,-114.068985
100022581,12 Ave West of 8 St SW Perm,6/16/2015,,1,51.04198,-114.08213
100022582,12 Ave West of 3 St SE Perm,6/16/2015,,1,51.04131,-114.05776
100023038,Broadway Eco-Totem,6/23/2015,,456,42.363304,-71.085754
100023071,Sperling,1/1/2001,,33,0,0
100023085,Winston - Sperling,7/2/2009,,14,49.24301,-122.97224
100023269,01 K - Bonner Straße Rad,4/1/2012,,184,50.9182,6.960489
100023270,02 K - Venloer Straße Rad,7/1/2014,,1,50.945816,6.9266076
100023387,M2L1 - BTW BUCKHOUSE & BLUE MTN,10/21/2015,,117,46.82696,-114.070015
100023388,M2L2 - BTW BLUE MTN & WEIGH STATION,10/21/2015,,1,46.801346,-114.09599
100023389,M2L3 - S OF MORMON CRK RD,10/21/2015,,1,46.747185,-114.08304
100023514,Sussex at Macdonald-Cartier Bridge,8/20/2015,,125,45.43538715,-75.69849216
100023678,Bike Counts in 2015,1/1/2015,,164,0,0
100024146,Nordstrandveien 59,10/7/2015,,468,59.86035,10.80796
100024147,Tvetenveien,10/7/2015,,1,59.9132,10.82386
100024148,Holmenkollvn 42,9/10/2015,,1,59.94954,10.67611
100024149,Trasop skole,9/10/2015,,1,59.90593,10.85111
100024150,Vaterlands bro,10/2/2015,,1,59.91341,10.75789
100024151,Kierschowsgate 10,9/11/2015,,1,59.93691,10.74792
100024230,Sherwood Forest,9/18/2015,,79,37.33722,-77.01868
100024231,Adkins Road,9/18/2015,,1,37.332188,-77.10073
100024232,Four Mile Creek,9/17/2015,,1,37.43519565,-77.32803408
100024233,Almond Creek,9/17/2015,,1,37.50754,-77.413864
100024234,Willis Church,9/17/2015,,1,37.405174,-77.26437
100024235,Herring Creek,9/18/2015,,1,37.33797,-77.17409
100024236,Chickahominy River,9/18/2015,,1,37.262756,-76.88913
100024297,8 Ave West of 8 Street,7/11/2015,,61,51.04605,-114.081604
100024362,Folsom @ Boulder Creek,9/8/2011,,65,40.01304,-105.26307
100024363,Folsom @ Pine,7/20/2015,,1,40.02342,-105.26363
100024364,Folsom @ South St.,7/20/2015,,1,40.01965,-105.263115
100024535,"TriMet - Tilikum Crossing, Eastbound",8/7/2015,,171,45.50327237,-122.669503
100024536,"TriMet - Tilikum Crossing, Westbound",8/6/2015,,1,45.50658922,-122.6641113
100024559,Bike Barometer: Portland Tilikum Crossing,9/9/2015,,23,45.505068,-122.666801
100024661,Jannowitzbrücke,4/1/2015,,102,52.51406586,13.41775102
100024668,Prescott Russell Site 1 - ZELT Only,8/19/2015,,7,45.41792,-75.55974
100024763,"Števec kolesarjev -  Novo mesto, Glavni trg ",9/15/2015,,95,45.801926,15.170695
100025075,Langmatt,12/1/2015,,312,47.03501,8.259913
100025076,Schlundstrasse,12/1/2015,,1,47.02812,8.28801
100025077,Nidfeldstrasse,1/1/2016,,1,47.02758867,8.298966223
100025078,Horwerstrasse,12/1/2015,,1,47.03198,8.2837
100025079,Langsägestrasse,12/1/2015,,1,47.038303,8.294642
100025080,Schachenstrasse,12/1/2015,,1,47.03499833,8.280477756
100025243,Nanny Goat Hill,11/6/2015,,163,45.41563724,-75.70742316
100025372,FR3 Eschholzstr. / Egonstraße - Radfahrende im Querschnitt,1/1/2015,,129,47.999683,7.83709
100025474,Saint-Laurent/Bellechasse,12/1/2016,,102,45.52781954,-73.60311217
100025615,Kyststien Engersand,11/9/2015,,141,59.72830901,10.30333274
100025792,O-Train Trillium at Beech,6/24/2016,,177,45.40055472,-75.71112656
100026088,Taubenhaus (603),1/1/2012,,296,47.04239,8.302204
100026123,San Sebastian,11/8/2015,,35,43.29995,-1.9561509
100026124,Bilbao - Ayuntamiento,11/8/2015,,1,43.26413,-2.9240992
100026313,"Folsom @ South St. - Non Active, Pending Reconf.",7/20/2015,,189,40.01965,-105.263115
100026469,Lysløype Fet,2/26/2016,,156,59.752403,5.3066645
100026656,Avenida Gasteiz,11/5/2015,,187,42.849293,-2.6813104
100026846,Compteur t'est ,1/1/2016,,190,48.75720027,-3.463690546
100027012,Lower Causeway (700 Government - West),6/8/2017,,166,48.42168484,-123.3688836
100027013,Hotel Rialto (600 Pandora - South),6/7/2017,,1,48.42799149,-123.3649496
100027014,Fort St (800 Fort - South),6/7/2017,,1,48.42414782,-123.3619243
100027015,Public Market (1700 Douglas - East),6/7/2017,,1,48.42968783,-123.364285
100027018,Åsbieskogen (Arendal kommune),6/11/2019,,3,58.45380843,8.725426727
100027019,Fevik - strandpromenaden (Grimstad kommune),1/1/2019,,1,58.37142299,8.671525055
100027020,Lyngmyr - Fagerhei (Tvedestrand kommune),1/1/2018,,1,58.63120711,8.941505486
100027021,Urheia (Risør kommune),2/25/2019,,1,58.72342485,9.232814842
100027022,Hasseltangen (Grimstad kommune),1/1/2019,,1,58.392487,8.724341
100027039,Hove (Arendal kommune),5/28/2019,,17,58.43630921,8.827339667
100027059,Øynaheia (Froland kommune),1/1/2019,,20,58.515869,8.410717779
100027060,Dømmesmoen (Grimstad kommune),1/1/2019,,1,58.35562076,8.573935562
100027061,Kleivvann/Havrefjell (Gjerstad/Nissedal kommune),1/1/2019,,1,58.884068,8.902749
100027062,Myra - lysløypa VSA (Vegårshei kommune),1/1/2019,,1,58.74804706,8.85048204
100027063,Hillestadheia (Åmli kommune),1/1/2019,,1,58.82926229,8.193791443
100027075,5.14 BN - Mc Cloy Weg,2/1/2016,,12,50.6709115,7.1880155
100027076,5.15 BN - Weg auf Damm Neil,2/1/2016,,1,50.73356,7.11554
100027077,5.13 BN - Wilhelm-Spiritus-Ufer,2/1/2016,,1,50.72844501,7.111953889
100027116,Butler Trail,2/16/2016,,39,30.27475183,-97.77071379
100027141,Svartneset,11/13/2015,,25,63.42966461,10.80533054
100027494,R. Vergueiro,1/16/2016,,353,-23.5777752,-46.64073932
100027495,Faria Lima,1/18/2016,,1,-23.568817,-46.69212
100027939,Klevvann(Gjerstad kommune),1/1/2018,,444,58.88407291,8.90214266
100028002,Piloto Lx,1/26/2016,,63,38.73515759,-9.144545259
100028353,Gabriela Mistral con Andes,1/1/2017,,351,-38.72913,-72.62009
100029087,1200 Penn Bikes Only,4/15/2016,,734,40.44608,-79.99171
100029088,900 Penn Bikes Only,4/15/2016,,1,40.44419,-79.99679
100029089,600 Penn Bikes,4/2/2015,,1,40.442776,-80.00172
100029120,Penn 1200 Bikes Only,4/15/2016,,31,40.44608,-79.99171
100029121,Penn 900 Bikes Only,4/15/2016,,1,40.44419,-79.99679
100029123,Penn 600 Bikes Only,4/15/2016,,2,40.44281,-80.00173
100029851,NTFK #4,5/11/2016,,728,63.87267,11.29436
100029854,03 K - Hohenzollernbrücke,4/1/2016,,3,50.94118,6.9701
100029902,Sickla allé/ Sickla strand,4/28/2016,,48,59.30272157,18.11636216
100029903,Järlaleden,4/28/2016,,1,59.3058196,18.13492483
100029904,Värmdövägen Nacka Forum,5/2/2016,,1,59.30826871,18.16312815
100029905,Värmdövägen Björknäs,5/2/2016,,1,59.31535373,18.23008284
100029916,Pinawa Friends of the Trans Canada Trail,5/7/2016,,11,50.14468,-95.87556
100029965,Ernst-Walz-Brücke Richtung Stadt,6/1/2014,,49,49.408844,8.676709
100029972,Knox Mountain - Apex Trail,5/15/2017,,7,49.89215399,-119.4056446
100030145,Ritz Hotel (700 Fort - North),6/7/2017,,173,48.42466065,-123.364871
100030168,Rails with Trails,3/22/2016,,23,49.887615,-119.4569
100030332,Bjørgan skianlegg #1,3/27/2016,,164,64.39220551,12.33317157
100030353,Toteemi,4/27/2016,,21,60.47905,22.19256
100030402,Bow River Pathway,3/30/2016,,49,51.04957609,-114.0863856
100030418,04 K - Neumarkt kpl,3/24/2016,,16,50.93637257,6.947836757
100030452,9 Ave West of 4 St SE,6/16/2015,,34,51.04436368,-114.0539707
100030470,Sentier de la marinade,4/6/2016,,18,45.84913,4.84667
100030488,Clifton NB,3/22/2016,,18,49.892555,-119.46571
100030490,Clifton SB,3/22/2016,,2,49.8925189,-119.4658804
100030491,Ethel St ATC,3/22/2016,,1,49.88467107,-119.4828044
100030517,06 K - Zülpicher Straße kpl.,4/7/2016,,26,50.92740654,6.93428398
100030584,Sentiers des Grandes Terres,4/8/2016,,67,45.6712,4.8757696
100030585,Sentier de Sacuny,4/8/2016,,1,45.687847,4.77702
100030586,Sentier du Biézin nature,4/8/2016,,1,45.754517,4.9588695
100030610,Pensacola Street at Martin Luther King Jr. Blvd,11/29/2016,,24,30.43876859,-84.28628747
100030611,Madison Street at Boulevard Street,1/19/2017,,1,30.4382559,-84.2807329
100030630,Sentier de Sermenaz,4/18/2016,,19,45.81894,4.908427
100030638,Sentier du bois de Serres,4/18/2016,,8,45.796566,4.7575192
100030640,Sentier jeu de regards,4/18/2016,,2,45.77457,4.729683
100030642,Sentier du vallon de l'Yzeron,4/18/2016,,2,45.742382,4.739413
100030651,Sentier de l'Homme et du Paysage,4/19/2016,,9,45.83286,4.808203
100030652,Sentier du ruisseau de Rochecardon,4/19/2016,,1,45.809753,4.782476
100030659,Boucle du Franc Lyonnais,4/19/2016,,7,45.883167,4.854068
100030676,Sentier de l'Homme et du fleuve,4/20/2016,,17,45.641506,4.815302
100030761,8 Ave West of 3 Street SW,7/10/2015,,85,51.045746,-114.07067
100030768,8 Ave West of 3 Street,7/9/2015,,7,51.045742,-114.07051
100030820,Seattle 2nd Avenue,4/23/2016,,52,47.60478163,-122.3347628
100030837,Adawe Crossing,12/4/2015,,17,45.42604608,-75.67060983
100030931,Pablo Neruda con Olimpia,1/1/2017,,94,-38.73991455,-72.6229949
100030932,Pablo Neruda con J. Carrera ,1/1/2017,,1,-38.73847,-72.62889
100030933,Gabriela Mistral con Recreo.,1/1/2017,,1,-38.72843,-72.61454
100030934,Hochstetter con B. O´Higgins ,1/1/2017,,1,-38.73938,-72.61802
100030935,Hochstetter con Pucon,1/1/2017,,1,-38.72965,-72.61093
100030986,Challenge Velo D788 (face IUT),5/4/2016,,51,48.758408,-3.453648
100030989,D788 (face NOKIA),5/5/2016,,3,48.758378,-3.453864
100030993,rue blaise Pascal (face construction Parlouer),5/4/2016,,4,48.75981,-3.47949
100031062,Bologna - Via Sabotino,5/18/2016,,69,44.497074,11.323423
100031197,"Solemstien, Overhalla NTFK#1 ",5/19/2016,,135,64.54289,11.97386
100031222,D788,5/1/2016,,25,48.75861,-3.4536264
100031285,Eco-Totem BH,6/28/2016,,63,-19.932713,-43.929935
100031435,Levanger Moan NTFK #2,5/31/2016,,150,63.74305,11.279907
100031441,8th Ave west of 8th street,6/15/2015,,6,51.045986,-114.081795
100031480,Rock Creek Trail 1,4/28/2017,,39,39.016129,-77.094196
100031482,Matthew Henson Trail 1,4/28/2017,,2,39.08165896,-77.04735782
100031483,Rock Creek Trail 2,8/15/2016,,1,39.090257,-77.113817
100031968,Randvik,5/28/2019,,485,58.709534,9.222121
100031969,Lyngør (Tvedestrand kommune),1/1/2019,,1,58.63335,9.135264
100031970,Granestua (Arendal kommune),1/1/2019,,1,58.528156,8.753503
100031971,Merdø (Arendal kommune),1/1/2019,,1,58.42606,8.805114
100032128,Troldhaugen,10/27/2016,,157,60.31947185,5.329154569
100032129,Siljustøl,10/6/2016,,1,60.29351186,5.298078441
100032130,Lysøen,10/6/2016,,1,60.21373815,5.36198853
100032131,KODE 3,8/19/2016,,1,60.3895,5.3275757
100032146,NCC Western Canal Pathway at Ritz - Ottawa Counter,7/3/2015,,15,45.40675,-75.68186
100032152,Invalidenstraße,6/1/2015,,6,52.52718,13.37202
100032154,Frankfurter Allee,6/1/2016,,2,52.51373868,13.47436716
100032155,Berliner Straße,5/1/2016,,1,52.56681,13.41217
100032159,Schwedter Steg,4/1/2012,,4,52.54884,13.40037
100032161,Klosterstraße,6/1/2016,,2,52.533665,13.198963
100032163,Breitenbachplatz,5/1/2016,,2,52.46676,13.30916
100032165,Monumentenstraße,5/1/2015,,2,52.48812,13.36979
100032166,Mariendorfer Damm,5/1/2016,,1,52.438305,13.387879
100032169,Markstraße,5/1/2015,,3,52.55819,13.36494
100032212,Oberbaumbrücke,6/1/2015,,43,52.5012,13.44506
100032236,Maybachufer,5/1/2016,,24,52.49311816,13.42914925
100032237,Kaisersteg,5/1/2016,,1,52.45775788,13.5193596
100032269,Kvaløya,7/22/2016,,32,69.689699,18.811952
100032454,Konrad Adenauer Allee,9/17/2016,,185,48.36373435,10.895953
100032641,UCLA Westwood Bike Counter,5/9/2017,,187,34.06431432,-118.445247
100032655,James Street Stairs,7/7/2016,,14,43.24614678,-79.87411673
100032657,Wentworth Street Stairs,7/7/2016,,2,43.24326768,-79.85264226
100032661,Kimberly Drive Stairs,7/7/2016,,4,43.22907365,-79.81381454
100032714,Chedoke Stairs,7/5/2016,,53,43.24569463,-79.90691219
100032715,Dundurn Street Stairs,7/5/2016,,1,43.24546521,-79.89521739
100032754,King Street West Cycle Track,7/19/2016,,39,43.26274122,-79.89090887
100032755,Waterfront Trail (Bayfront Park),7/12/2016,,1,43.26928668,-79.87249888
100032772,Südbrücke,5/1/2016,,17,50.71763663,7.143513524
100032920,Cyrville Road,11/16/2016,,148,45.4235124,-75.63509872
100032983,KunstLab,8/15/2016,,63,60.389294,5.3289094
100033028,University Ave. Bike Lane (Rowe),4/27/2017,,45,44.6370275,-63.5882169
100033035,Paul- und Paula-Uferweg,6/1/2015,,7,52.50025,13.47438
100033037,Alberichstraße,7/1/2015,,2,52.4925,13.55849
100033038,Yorckstraße,4/1/2015,,1,52.49199,13.37412
100033039,Prinzregentenstraße,4/1/2015,,1,52.49058,13.33308
100033088,KODE 4 ,8/25/2016,,49,60.389313,5.328995
100033089,KODE 2,8/19/2016,,1,60.390068,5.3253474
100033127,沧州解放西路自行车计数,12/11/2016,,38,38.30372,116.82741
100033128,沧州运河绿道客流计数,10/1/2016,,1,38.30882,116.84638
100033129,北京杨梅竹斜街胡同多方式计数,10/3/2016,,1,39.89433351,116.386365
100033130,北工大便携计数,9/30/2016,,1,39.894337,116.38904
100033550,Edmonton Trail,9/7/2016,,420,51.051323,-114.050316
100033615,Friedrichstr,9/21/2016,,65,51.21577,6.77688
100033660,Elisabethstr,9/21/2016,,45,51.21722715,6.775415967
100033674,Suvantosilta1,10/10/2016,,14,62.59779245,29.76352289
100033675,Suvantosilta 2,10/10/2016,,1,62.59809,29.76358
100033917,Belmont Pier Eco-TOTEM,9/21/2016,,242,33.75895442,-118.1484627
100033965,HCC Tube Counter,8/30/2018,,48,44.64115,-63.57923
100033984,Árpád híd,12/2/2016,,19,47.53654858,19.05872914
100033985,Bem rakpart,12/2/2016,,1,47.5122577,19.03949621
100033986,Weiss Manfréd út,12/3/2016,,1,47.45627915,19.07142798
100033987,Hungária körút,12/1/2016,,1,47.48898391,19.10923998
100033989,Lágymányosi híd,10/30/2016,,2,47.46876479,19.07097952
100034053,Matthew Henson Trail 2,8/16/2016,,64,39.058318,-77.0916
100034165,O'Connor @ Argyle,10/13/2016,,112,45.41172757,-75.69040081
100034249,Arsenal ,12/13/2016,,84,47.03814058,8.299547643
100034250,Kleinmatt,12/13/2016,,1,47.04077957,8.306729119
100034452,Kvarnholmsvägen,12/5/2016,,202,59.31198464,18.10941893
100034495,Marine Parade,5/2/2013,,43,-39.5007888,176.9193886
100034496,Gloucester Street Taradale,2/3/2017,,1,-39.54778958,176.8400694
100034497,Clifton Road,2/24/2017,,1,-39.62194752,176.9628708
100034500,Main @ Evelyn,6/17/2017,,3,45.41136628,-75.67931701
100034501,Main @ Centennial,6/17/2017,,1,45.401682,-75.67365806
100034648,Santa Monica – Bike Counter – Main Street,12/21/2016,,147,34.01196759,-118.492668
100034761,Műegyetem rakpart K. épület,11/21/2016,,113,47.48224307,19.05623535
100034882,König-Karls-Brücke,7/1/2012,,121,48.79912609,9.210372162
100034893,Hundertmännerstraße,1/1/2014,,11,54.081974,12.114006
100034894,Böblinger Straße,1/1/2014,,1,48.74661091,9.135662268
100035004,Nordbrücke,5/1/2015,,110,50.75639231,7.099492972
100035097,Langensandbrücke ,12/1/2016,,93,47.04544,8.30929
100035126,8 Gillie Creek,2/18/2017,,29,37.52275451,-77.41788135
100035172,Remington Bicycle Counter,12/11/2016,,46,40.56887055,-105.0753297
100035242,Mackenzie @ Rideau,1/1/2017,,70,45.42551994,-75.6943767
100035361,Waiblinger Str. Ri. Stadtmitte,12/14/2016,,119,48.80515,9.22641
100035363,Waibl Stadtmitte,12/14/2016,,2,48.80516,9.22629
100035631,Sunna kanal,5/10/2017,,268,56.18880223,15.61322881
100035632,Söder om Torskors ind.område,5/10/2017,,1,56.21513079,15.63985971
100035633,Verkö/Lyckeby,5/10/2017,,1,56.19450171,15.64115834
100035640,Alcazar,3/15/2017,,7,-37.47648361,-72.36265417
100035876,Cannon Street Cycle Track (West) - Total,12/11/2015,,236,43.25799372,-79.85604196
100035887,Cannon Street Cycle Track (Bay) - Total,12/11/2015,,11,43.26200686,-79.87299412
100036173,"Via Traiana - Parco Naturale Regionale ""Dune Costiere""",3/31/2017,,286,40.78535953,17.51081825
100036476,University Avenue Bike Display,4/28/2017,,303,44.63761253,-63.58840039
100036486,Schachenstr. Velo,12/1/2015,,10,47.03497312,8.280624241
100036488,Langsägestrasse Velo,12/1/2015,,2,47.0383,8.29464
100036489,Langsägestrasse Velo,12/1/2015,,1,47.0383,8.29464
100036499,403 (Hamilton-Brantford Trail),2/23/2017,,10,43.25185328,-79.90994917
100037010,Hinrichshagen,3/27/2017,,511,54.19088341,12.18219011
100037011,Markgrafenheide,3/27/2017,,1,54.19103434,12.18094564
100037012,Graal-Müritz,6/16/2015,,1,54.19104662,12.18174004
100037111,Świnoujście,5/15/2017,,99,53.92647772,14.2261767
100037112,Rogowo,5/15/2017,,1,54.15462697,15.37698812
100037122,King St. West & Cannon St. (Bay) Cycle Track Total,12/9/2014,,10,43.259419,-79.878747
100037170,König-Karls-Brücke ,7/1/2012,,48,48.79907109,9.210355904
100037243,Av. Eng. J. Meireles,4/13/2017,,73,37.0828052,-8.117742945
100037306,Av. da Marina,4/13/2017,,63,37.0774987,-8.116660011
100037429,YSH17042064,7/9/2018,,123,0,0
100037444,FMI00000454,4/24/2017,,15,50.65816974,4.580880085
100037507,Waiblinger Str. Ri. Augsburger Platz,1/1/2014,,63,48.80498248,9.226468548
100037508,Taubenheimstr. von Deckerstr.,1/1/2014,,1,48.80495412,9.226962275
100037687,Corso Nizza Display,5/21/2017,,179,44.38639039,7.544525343
100037688,Corso Nizza Provincia,5/16/2017,,1,44.386241,7.544756888
100037750,Waterlily,6/6/2017,,62,48.64880332,-123.3951735
100037899,Glenlyon - North Fraser Way,9/19/2017,,149,49.20034636,-123.0102447
100038129,Contabici Corso Nizza,5/21/2017,,230,44.38624,7.54476
100038433,Santuario Angeli,10/20/2017,,304,44.36845907,7.538894203
100038434,Pedancola Vassallo,10/19/2017,,1,44.39322455,7.535487003
100038466,Silk Road (1600 Government - West),6/7/2017,,32,48.42913168,-123.3672542
100038528,"Stephen Ave Counts (Pedestrians, Bikes & Cars)",10/22/2014,,62,51.04554629,-114.0647387
100038690,Sirkkalan silta Etelä,7/24/2017,,162,62.60307989,29.7690218
100038691,Sirkkalan silta Pohj,7/24/2017,,1,62.60262,29.77349
100039000,Willingdon Linear Park - Brentlawn,11/29/2017,8/13/2019,309,49.26981746,-123.0027419
100039001,Willingdon Linear Park - Frances,7/4/2017,8/13/2019,1,49.27908506,-123.0030367
100039002,Willingdon Linear Park - Hastings,7/4/2017,8/13/2019,1,49.28071329,-123.0028758
100039003,No Counter,,8/13/2019,1,,
100039004,No Counter,,8/13/2019,1,,
100039005,No Counter,,8/13/2019,1,,
100039006,No Counter,,8/13/2019,1,,
100039007,No Counter,,8/13/2019,1,,
100039008,No Counter,,8/13/2019,1,,
100039009,No Counter,,8/13/2019,1,,
100039010,No Counter,,8/13/2019,1,,
100039011,No Counter,,8/13/2019,1,,
100039012,No Counter,,8/13/2019,1,,
100039013,No Counter,,8/13/2019,1,,
100039014,No Counter,,8/13/2019,1,,
100039015,No Counter,,8/13/2019,1,,
100039016,No Counter,,8/13/2019,1,,
100039017,No Counter,,8/13/2019,1,,
100039018,No Counter,,8/13/2019,1,,
100039019,No Counter,,8/13/2019,1,,
100039020,No Counter,,8/13/2019,1,,
100039021,No Counter,,8/13/2019,1,,
100039022,No Counter,,8/13/2019,1,,
100039023,No Counter,,8/13/2019,1,,
100039024,No Counter,,8/13/2019,1,,
100039025,No Counter,,8/13/2019,1,,
100039026,No Counter,,8/13/2019,1,,
100039027,No Counter,,8/13/2019,1,,
100039028,No Counter,,8/13/2019,1,,
100039029,No Counter,,8/13/2019,1,,
100039030,No Counter,,8/13/2019,1,,
100039031,No Counter,,8/13/2019,1,,
100039032,No Counter,,8/13/2019,1,,
100039033,No Counter,,8/13/2019,1,,
100039034,No Counter,,8/13/2019,1,,
100039035,No Counter,,8/13/2019,1,,
100039036,No Counter,,8/13/2019,1,,
100039037,No Counter,,8/13/2019,1,,
100039038,No Counter,,8/13/2019,1,,
100039039,No Counter,,8/13/2019,1,,
100039040,No Counter,,8/13/2019,1,,
100039041,No Counter,,8/13/2019,1,,
100039042,No Counter,,8/13/2019,1,,
100039043,No Counter,,8/13/2019,1,,
100039044,No Counter,,8/13/2019,1,,
100039045,No Counter,,8/13/2019,1,,
100039046,No Counter,,8/13/2019,1,,
100039047,No Counter,,8/13/2019,1,,
100039048,No Counter,,8/13/2019,1,,
100039049,No Counter,,8/13/2019,1,,
100039050,No Counter,,8/13/2019,1,,
100039051,No Counter,,8/13/2019,1,,
100039052,No Counter,,8/13/2019,1,,
100039053,No Counter,,8/13/2019,1,,
100039054,No Counter,,8/13/2019,1,,
100039055,No Counter,,8/13/2019,1,,
100039056,No Counter,,8/13/2019,1,,
100039057,No Counter,,8/13/2019,1,,
100039058,No Counter,,8/13/2019,1,,
100039059,No Counter,,8/13/2019,1,,
100039060,No Counter,,8/13/2019,1,,
100039061,No Counter,,8/13/2019,1,,
100039062,No Counter,,8/13/2019,1,,
100039063,No Counter,,8/13/2019,1,,
100039064,No Counter,,8/13/2019,1,,
100039065,No Counter,,8/13/2019,1,,
100039066,No Counter,,8/13/2019,1,,
100039067,No Counter,,8/13/2019,1,,
100039068,No Counter,,8/13/2019,1,,
100039069,No Counter,,8/13/2019,1,,
100039070,No Counter,,8/13/2019,1,,
100039071,No Counter,,8/13/2019,1,,
100039072,No Counter,,8/13/2019,1,,
100039073,No Counter,,8/13/2019,1,,
100039074,No Counter,,8/13/2019,1,,
100039075,No Counter,,8/13/2019,1,,
100039076,No Counter,,8/13/2019,1,,
100039077,No Counter,,8/13/2019,1,,
100039078,No Counter,,8/13/2019,1,,
100039079,No Counter,,8/13/2019,1,,
100039080,No Counter,,8/13/2019,1,,
100039081,No Counter,,8/13/2019,1,,
100039082,No Counter,,8/13/2019,1,,
100039083,No Counter,,8/13/2019,1,,
100039084,No Counter,,8/13/2019,1,,
100039085,No Counter,,8/13/2019,1,,
100039086,No Counter,,8/13/2019,1,,
100039087,No Counter,,8/13/2019,1,,
100039088,No Counter,,8/13/2019,1,,
100039089,No Counter,,8/13/2019,1,,
100039090,No Counter,,8/13/2019,1,,
100039091,No Counter,,8/13/2019,1,,
100039092,No Counter,,8/13/2019,1,,
100039093,No Counter,,8/13/2019,1,,
100039094,No Counter,,8/13/2019,1,,
100039095,No Counter,,8/13/2019,1,,
100039096,No Counter,,8/13/2019,1,,
100039097,No Counter,,8/13/2019,1,,
100039098,No Counter,,8/13/2019,1,,
100039099,No Counter,,8/13/2019,1,,
100039100,No Counter,,8/13/2019,1,,
100039101,No Counter,,8/13/2019,1,,
100039102,No Counter,,8/13/2019,1,,
100039103,No Counter,,8/13/2019,1,,
100039104,No Counter,,8/13/2019,1,,
100039105,No Counter,,8/13/2019,1,,
100039106,No Counter,,8/13/2019,1,,
100039107,No Counter,,8/13/2019,1,,
100039108,No Counter,,8/13/2019,1,,
100039109,No Counter,,8/13/2019,1,,
100039110,No Counter,,8/13/2019,1,,
100039111,No Counter,,8/13/2019,1,,
100039112,No Counter,,8/13/2019,1,,
100039113,No Counter,,8/13/2019,1,,
100039114,No Counter,,8/13/2019,1,,
100039115,No Counter,,8/13/2019,1,,
100039116,No Counter,,8/13/2019,1,,
100039117,No Counter,,8/13/2019,1,,
100039118,No Counter,,8/13/2019,1,,
100039119,No Counter,,8/13/2019,1,,
100039120,No Counter,,8/13/2019,1,,
100039121,No Counter,,8/13/2019,1,,
100039122,No Counter,,8/13/2019,1,,
100039123,No Counter,,8/13/2019,1,,
100039124,No Counter,,8/13/2019,1,,
100039125,No Counter,,8/13/2019,1,,
100039126,No Counter,,8/13/2019,1,,
100039127,No Counter,,8/13/2019,1,,
100039128,No Counter,,8/13/2019,1,,
100039129,No Counter,,8/13/2019,1,,
100039130,No Counter,,8/13/2019,1,,
100039131,No Counter,,8/13/2019,1,,
100039132,No Counter,,8/13/2019,1,,
100039133,No Counter,,8/13/2019,1,,
100039134,No Counter,,8/13/2019,1,,
100039135,No Counter,,8/13/2019,1,,
100039136,No Counter,,8/13/2019,1,,
100039137,No Counter,,8/13/2019,1,,
100039138,No Counter,,8/13/2019,1,,
100039139,No Counter,,8/13/2019,1,,
100039140,No Counter,,8/13/2019,1,,
100039141,No Counter,,8/13/2019,1,,
100039142,No Counter,,8/13/2019,1,,
100039143,No Counter,,8/13/2019,1,,
100039144,No Counter,,8/13/2019,1,,
100039145,No Counter,,8/13/2019,1,,
100039146,No Counter,,8/13/2019,1,,
100039147,No Counter,,8/13/2019,1,,
100039148,No Counter,,8/13/2019,1,,
100039149,No Counter,,8/13/2019,1,,
100039150,No Counter,,8/13/2019,1,,
100039151,No Counter,,8/13/2019,1,,
100039152,No Counter,,8/13/2019,1,,
100039153,No Counter,,8/13/2019,1,,
100039154,No Counter,,8/13/2019,1,,
100039155,No Counter,,8/13/2019,1,,
100039156,No Counter,,8/13/2019,1,,
100039157,No Counter,,8/13/2019,1,,
100039158,No Counter,,8/13/2019,1,,
100039159,No Counter,,8/13/2019,1,,
100039160,No Counter,,8/13/2019,1,,
100039161,No Counter,,8/13/2019,1,,
100039162,No Counter,,8/13/2019,1,,
100039163,No Counter,,8/13/2019,1,,
100039164,No Counter,,8/13/2019,1,,
100039165,No Counter,,8/13/2019,1,,
100039166,No Counter,,8/13/2019,1,,
100039167,No Counter,,8/13/2019,1,,
100039168,No Counter,,8/13/2019,1,,
100039169,No Counter,,8/13/2019,1,,
100039170,No Counter,,8/13/2019,1,,
100039171,No Counter,,8/13/2019,1,,
100039172,No Counter,,8/13/2019,1,,
100039173,No Counter,,8/13/2019,1,,
100039174,No Counter,,8/13/2019,1,,
100039175,No Counter,,8/13/2019,1,,
100039176,No Counter,,8/13/2019,1,,
100039177,No Counter,,8/13/2019,1,,
100039178,No Counter,,8/13/2019,1,,
100039179,No Counter,,8/13/2019,1,,
100039180,No Counter,,8/13/2019,1,,
100039181,No Counter,,8/13/2019,1,,
100039182,No Counter,,8/13/2019,1,,
100039183,No Counter,,8/13/2019,1,,
100039184,No Counter,,8/13/2019,1,,
100039185,No Counter,,8/13/2019,1,,
100039186,No Counter,,8/13/2019,1,,
100039187,No Counter,,8/13/2019,1,,
100039188,No Counter,,8/13/2019,1,,
100039189,No Counter,,8/13/2019,1,,
100039190,No Counter,,8/13/2019,1,,
100039191,No Counter,,8/13/2019,1,,
100039192,No Counter,,8/13/2019,1,,
100039193,No Counter,,8/13/2019,1,,
100039194,No Counter,,8/13/2019,1,,
100039195,No Counter,,8/13/2019,1,,
100039196,No Counter,,8/13/2019,1,,
100039197,No Counter,,8/13/2019,1,,
100039198,No Counter,,8/13/2019,1,,
100039199,No Counter,,8/13/2019,1,,
100039200,No Counter,,8/13/2019,1,,
100039201,No Counter,,8/13/2019,1,,
100039202,No Counter,,8/13/2019,1,,
100039203,No Counter,,8/13/2019,1,,
100039204,No Counter,,8/13/2019,1,,
100039205,No Counter,,8/13/2019,1,,
100039206,No Counter,,8/13/2019,1,,
100039207,No Counter,,8/13/2019,1,,
100039208,No Counter,,8/13/2019,1,,
100039209,No Counter,,8/13/2019,1,,
100039210,No Counter,,8/13/2019,1,,
100039211,No Counter,,8/13/2019,1,,
100039212,No Counter,,8/13/2019,1,,
100039213,No Counter,,8/13/2019,1,,
100039214,No Counter,,8/13/2019,1,,
100039215,No Counter,,8/13/2019,1,,
100039216,No Counter,,8/13/2019,1,,
100039217,No Counter,,8/13/2019,1,,
100039218,No Counter,,8/13/2019,1,,
100039219,No Counter,,8/13/2019,1,,
100039220,No Counter,,8/13/2019,1,,
100039221,No Counter,,8/13/2019,1,,
100039222,No Counter,,8/13/2019,1,,
100039223,No Counter,,8/13/2019,1,,
100039224,No Counter,,8/13/2019,1,,
100039225,No Counter,,8/13/2019,1,,
100039226,No Counter,,8/13/2019,1,,
100039227,No Counter,,8/13/2019,1,,
100039228,No Counter,,8/13/2019,1,,
100039229,No Counter,,8/13/2019,1,,
100039230,No Counter,,8/13/2019,1,,
100039231,No Counter,,8/13/2019,1,,
100039232,No Counter,,8/13/2019,1,,
100039233,No Counter,,8/13/2019,1,,
100039234,No Counter,,8/13/2019,1,,
100039235,No Counter,,8/13/2019,1,,
100039236,No Counter,,8/13/2019,1,,
100039237,No Counter,,8/13/2019,1,,
100039238,No Counter,,8/13/2019,1,,
100039239,No Counter,,8/13/2019,1,,
100039240,No Counter,,8/13/2019,1,,
100039241,No Counter,,8/13/2019,1,,
100039242,No Counter,,8/13/2019,1,,
100039243,No Counter,,8/13/2019,1,,
100039244,No Counter,,8/13/2019,1,,
100039245,No Counter,,8/13/2019,1,,
100039246,No Counter,,8/13/2019,1,,
100039247,No Counter,,8/13/2019,1,,
100039248,No Counter,,8/13/2019,1,,
100039249,No Counter,,8/13/2019,1,,
100039250,No Counter,,8/13/2019,1,,
100039251,No Counter,,8/13/2019,1,,
100039252,No Counter,,8/13/2019,1,,
100039253,No Counter,,8/13/2019,1,,
100039254,No Counter,,8/13/2019,1,,
100039255,No Counter,,8/13/2019,1,,
100039256,No Counter,,8/13/2019,1,,
100039257,No Counter,,8/13/2019,1,,
100039258,No Counter,,8/13/2019,1,,
100039259,No Counter,,8/13/2019,1,,
100039260,No Counter,,8/13/2019,1,,
100039261,No Counter,,8/13/2019,1,,
100039262,No Counter,,8/13/2019,1,,
100039263,No Counter,,8/13/2019,1,,
100039264,No Counter,,8/13/2019,1,,
100039265,No Counter,,8/13/2019,1,,
100039266,No Counter,,8/13/2019,1,,
100039267,No Counter,,8/13/2019,1,,
100039268,No Counter,,8/13/2019,1,,
100039269,No Counter,,8/13/2019,1,,
100039270,No Counter,,8/13/2019,1,,
100039271,No Counter,,8/13/2019,1,,
100039272,No Counter,,8/13/2019,1,,
100039273,No Counter,,8/13/2019,1,,
100039274,No Counter,,8/13/2019,1,,
100039275,No Counter,,8/13/2019,1,,
100039276,No Counter,,8/13/2019,1,,
100039277,No Counter,,8/13/2019,1,,
100039278,No Counter,,8/13/2019,1,,
100039279,No Counter,,8/13/2019,1,,
100039280,No Counter,,8/13/2019,1,,
100039281,No Counter,,8/13/2019,1,,
100039282,No Counter,,8/13/2019,1,,
100039283,No Counter,,8/13/2019,1,,
100039284,No Counter,,8/13/2019,1,,
100039285,No Counter,,8/13/2019,1,,
100039286,No Counter,,8/13/2019,1,,
100039287,No Counter,,8/13/2019,1,,
100039288,No Counter,,8/13/2019,1,,
100039289,No Counter,,8/13/2019,1,,
100039290,No Counter,,8/13/2019,1,,
100039291,No Counter,,8/13/2019,1,,
100039292,No Counter,,8/13/2019,1,,
100039293,No Counter,,8/13/2019,1,,
100039294,No Counter,,8/13/2019,1,,
100039295,No Counter,,8/13/2019,1,,
100039296,No Counter,,8/13/2019,1,,
100039297,No Counter,,8/13/2019,1,,
100039298,No Counter,,8/13/2019,1,,
100039299,No Counter,,8/13/2019,1,,
100039300,No Counter,,8/13/2019,1,,
100039301,No Counter,,8/13/2019,1,,
100039302,No Counter,,8/13/2019,1,,
100039303,No Counter,,8/13/2019,1,,
100039304,No Counter,,8/13/2019,1,,
100039305,No Counter,,8/13/2019,1,,
100039306,No Counter,,8/13/2019,1,,
100039307,No Counter,,8/13/2019,1,,
100039308,No Counter,,8/13/2019,1,,
100039309,No Counter,,8/13/2019,1,,
100039310,No Counter,,8/13/2019,1,,
100039311,No Counter,,8/13/2019,1,,
100039312,No Counter,,8/13/2019,1,,
100039313,No Counter,,8/13/2019,1,,
100039314,No Counter,,8/13/2019,1,,
100039315,No Counter,,8/13/2019,1,,
100039316,No Counter,,8/13/2019,1,,
100039317,No Counter,,8/13/2019,1,,
100039318,No Counter,,8/13/2019,1,,
100039319,No Counter,,8/13/2019,1,,
100039320,No Counter,,8/13/2019,1,,
100039321,No Counter,,8/13/2019,1,,
100039322,No Counter,,8/13/2019,1,,
100039323,No Counter,,8/13/2019,1,,
100039324,No Counter,,8/13/2019,1,,
100039325,No Counter,,8/13/2019,1,,
100039326,No Counter,,8/13/2019,1,,
100039327,No Counter,,8/13/2019,1,,
100039328,No Counter,,8/13/2019,1,,
100039329,No Counter,,8/13/2019,1,,
100039330,No Counter,,8/13/2019,1,,
100039331,No Counter,,8/13/2019,1,,
100039332,No Counter,,8/13/2019,1,,
100039333,No Counter,,8/13/2019,1,,
100039334,No Counter,,8/13/2019,1,,
100039335,No Counter,,8/13/2019,1,,
100039336,No Counter,,8/13/2019,1,,
100039337,No Counter,,8/13/2019,1,,
100039338,No Counter,,8/13/2019,1,,
100039339,No Counter,,8/13/2019,1,,
100039340,No Counter,,8/13/2019,1,,
100039341,No Counter,,8/13/2019,1,,
100039342,No Counter,,8/13/2019,1,,
100039343,No Counter,,8/13/2019,1,,
100039344,No Counter,,8/13/2019,1,,
100039345,No Counter,,8/13/2019,1,,
100039346,No Counter,,8/13/2019,1,,
100039347,No Counter,,8/13/2019,1,,
100039348,No Counter,,8/13/2019,1,,
100039349,No Counter,,8/13/2019,1,,
100039350,No Counter,,8/13/2019,1,,
100039351,No Counter,,8/13/2019,1,,
100039352,No Counter,,8/13/2019,1,,
100039353,No Counter,,8/13/2019,1,,
100039354,No Counter,,8/13/2019,1,,
100039355,No Counter,,8/13/2019,1,,
100039356,No Counter,,8/13/2019,1,,
100039357,No Counter,,8/13/2019,1,,
100039358,No Counter,,8/13/2019,1,,
100039359,No Counter,,8/13/2019,1,,
100039360,No Counter,,8/13/2019,1,,
100039361,No Counter,,8/13/2019,1,,
100039362,No Counter,,8/13/2019,1,,
100039363,No Counter,,8/13/2019,1,,
100039364,No Counter,,8/13/2019,1,,
100039365,No Counter,,8/13/2019,1,,
100039366,No Counter,,8/13/2019,1,,
100039367,No Counter,,8/13/2019,1,,
100039368,No Counter,,8/13/2019,1,,
100039369,No Counter,,8/13/2019,1,,
100039370,No Counter,,8/13/2019,1,,
100039371,No Counter,,8/13/2019,1,,
100039372,No Counter,,8/13/2019,1,,
100039373,No Counter,,8/13/2019,1,,
100039374,No Counter,,8/13/2019,1,,
100039375,No Counter,,8/13/2019,1,,
100039376,No Counter,,8/13/2019,1,,
100039377,No Counter,,8/13/2019,1,,
100039378,No Counter,,8/13/2019,1,,
100039379,No Counter,,8/13/2019,1,,
100039380,No Counter,,8/13/2019,1,,
100039381,No Counter,,8/13/2019,1,,
100039382,No Counter,,8/13/2019,1,,
100039383,No Counter,,8/13/2019,1,,
100039384,No Counter,,8/13/2019,1,,
100039385,No Counter,,8/13/2019,1,,
100039386,No Counter,,8/13/2019,1,,
100039387,No Counter,,8/13/2019,1,,
100039388,No Counter,,8/13/2019,1,,
100039389,No Counter,,8/13/2019,1,,
100039390,No Counter,,8/13/2019,1,,
100039391,No Counter,,8/13/2019,1,,
100039392,No Counter,,8/13/2019,1,,
100039393,No Counter,,8/13/2019,1,,
100039394,No Counter,,8/13/2019,1,,
100039395,No Counter,,8/13/2019,1,,
100039396,No Counter,,8/13/2019,1,,
100039397,No Counter,,8/13/2019,1,,
100039398,No Counter,,8/13/2019,1,,
100039399,No Counter,,8/13/2019,1,,
100039400,No Counter,,8/13/2019,1,,
100039401,No Counter,,8/13/2019,1,,
100039402,No Counter,,8/13/2019,1,,
100039403,No Counter,,8/13/2019,1,,
100039404,No Counter,,8/13/2019,1,,
100039405,No Counter,,8/13/2019,1,,
100039406,No Counter,,8/13/2019,1,,
100039407,No Counter,,8/13/2019,1,,
100039408,No Counter,,8/13/2019,1,,
100039409,No Counter,,8/13/2019,1,,
100039410,No Counter,,8/13/2019,1,,
100039411,No Counter,,8/13/2019,1,,
100039412,No Counter,,8/13/2019,1,,
100039413,No Counter,,8/13/2019,1,,
100039414,No Counter,,8/13/2019,1,,
100039415,No Counter,,8/13/2019,1,,
100039416,No Counter,,8/13/2019,1,,
100039417,No Counter,,8/13/2019,1,,
100039418,No Counter,,8/13/2019,1,,
100039419,No Counter,,8/13/2019,1,,
100039420,No Counter,,8/13/2019,1,,
100039421,No Counter,,8/13/2019,1,,
100039422,No Counter,,8/13/2019,1,,
100039423,No Counter,,8/13/2019,1,,
100039424,No Counter,,8/13/2019,1,,
100039425,No Counter,,8/13/2019,1,,
100039426,No Counter,,8/13/2019,1,,
100039427,No Counter,,8/13/2019,1,,
100039428,No Counter,,8/13/2019,1,,
100039429,No Counter,,8/13/2019,1,,
100039430,No Counter,,8/13/2019,1,,
100039431,No Counter,,8/13/2019,1,,
100039432,No Counter,,8/13/2019,1,,
100039433,No Counter,,8/13/2019,1,,
100039434,No Counter,,8/13/2019,1,,
100039435,Wagenhalsstraße,12/1/2017,8/13/2019,1,48.36483,10.90473
100039436,No Counter,,8/13/2019,1,,
100039437,No Counter,,8/13/2019,1,,
100039438,No Counter,,8/13/2019,1,,
100039439,No Counter,,8/13/2019,1,,
100039440,No Counter,,8/13/2019,1,,
100039441,No Counter,,8/13/2019,1,,
100039442,No Counter,,8/13/2019,1,,
100039443,No Counter,,8/13/2019,1,,
100039444,No Counter,,8/13/2019,1,,
100039445,No Counter,,8/13/2019,1,,
100039446,No Counter,,8/13/2019,1,,
100039447,No Counter,,8/13/2019,1,,
100039448,No Counter,,8/13/2019,1,,
100039449,No Counter,,8/13/2019,1,,
100039450,No Counter,,8/13/2019,1,,
100039451,No Counter,,8/13/2019,1,,
100039452,No Counter,,8/13/2019,1,,
100039453,No Counter,,8/13/2019,1,,
100039454,No Counter,,8/13/2019,1,,
100039455,No Counter,,8/13/2019,1,,
100039456,No Counter,,8/13/2019,1,,
100039457,No Counter,,8/13/2019,1,,
100039458,No Counter,,8/13/2019,1,,
100039459,No Counter,,8/13/2019,1,,
100039460,No Counter,,8/13/2019,1,,
100039461,No Counter,,8/13/2019,1,,
100039462,No Counter,,8/13/2019,1,,
100039463,No Counter,,8/13/2019,1,,
100039464,No Counter,,8/13/2019,1,,
100039465,No Counter,,8/13/2019,1,,
100039466,No Counter,,8/13/2019,1,,
100039467,No Counter,,8/13/2019,1,,
100039468,No Counter,,8/13/2019,1,,
100039469,Radweg an der Aurach,1/1/2018,8/13/2019,1,49.56765,10.88042
100039470,No Counter,,8/13/2019,1,,
100039471,No Counter,,8/13/2019,1,,
100039472,No Counter,,8/13/2019,1,,
100039473,No Counter,,8/13/2019,1,,
100039474,No Counter,,8/13/2019,1,,
100039475,No Counter,,8/13/2019,1,,
100039476,No Counter,,8/13/2019,1,,
100039477,No Counter,,8/13/2019,1,,
100039478,No Counter,,8/13/2019,1,,
100039479,No Counter,,8/13/2019,1,,
100039480,No Counter,,8/13/2019,1,,
100039481,No Counter,,8/13/2019,1,,
100039482,No Counter,,8/13/2019,1,,
100039483,No Counter,,8/13/2019,1,,
100039484,No Counter,,8/13/2019,1,,
100039485,No Counter,,8/13/2019,1,,
100039486,No Counter,,8/13/2019,1,,
100039487,No Counter,,8/13/2019,1,,
100039488,No Counter,,8/13/2019,1,,
100039489,No Counter,,8/13/2019,1,,
100039490,No Counter,,8/13/2019,1,,
100039491,No Counter,,8/13/2019,1,,
100039492,No Counter,,8/13/2019,1,,
100039493,No Counter,,8/13/2019,1,,
100039494,No Counter,,8/13/2019,1,,
100039495,No Counter,,8/13/2019,1,,
100039496,No Counter,,8/13/2019,1,,
100039497,No Counter,,8/13/2019,1,,
100039498,No Counter,,8/13/2019,1,,
100039499,No Counter,,8/13/2019,1,,
100039500,No Counter,,8/13/2019,1,,
100039501,No Counter,,8/13/2019,1,,
100039502,No Counter,,8/13/2019,1,,
100039503,No Counter,,8/13/2019,1,,
100039504,No Counter,,8/13/2019,1,,
100039505,No Counter,,8/13/2019,1,,
100039506,No Counter,,8/13/2019,1,,
100039507,No Counter,,8/13/2019,1,,
100039508,No Counter,,8/13/2019,1,,
100039509,No Counter,,8/13/2019,1,,
100039510,No Counter,,8/13/2019,1,,
100039511,No Counter,,8/13/2019,1,,
100039512,No Counter,,8/13/2019,1,,
100039513,No Counter,,8/13/2019,1,,
100039514,No Counter,,8/13/2019,1,,
100039515,No Counter,,8/13/2019,1,,
100039516,No Counter,,8/13/2019,1,,
100039517,No Counter,,8/13/2019,1,,
100039518,No Counter,,8/13/2019,1,,
100039519,No Counter,,8/13/2019,1,,
100039520,No Counter,,8/13/2019,1,,
100039521,No Counter,,8/13/2019,1,,
100039522,No Counter,,8/13/2019,1,,
100039523,No Counter,,8/13/2019,1,,
100039524,No Counter,,8/13/2019,1,,
100039525,No Counter,,8/13/2019,1,,
100039526,No Counter,,8/13/2019,1,,
100039527,No Counter,,8/13/2019,1,,
100039528,No Counter,,8/13/2019,1,,
100039529,No Counter,,8/13/2019,1,,
100039530,No Counter,,8/13/2019,1,,
100039531,No Counter,,8/13/2019,1,,
100039532,No Counter,,8/13/2019,1,,
100039533,No Counter,,8/13/2019,1,,
100039534,No Counter,,8/13/2019,1,,
100039535,No Counter,,8/13/2019,1,,
100039536,No Counter,,8/13/2019,1,,
100039537,No Counter,,8/13/2019,1,,
100039538,No Counter,,8/13/2019,1,,
100039539,No Counter,,8/13/2019,1,,
100039540,No Counter,,8/13/2019,1,,
100039541,No Counter,,8/13/2019,1,,
100039542,No Counter,,8/13/2019,1,,
100039543,No Counter,,8/13/2019,1,,
100039544,No Counter,,8/13/2019,1,,
100039545,No Counter,,8/13/2019,1,,
100039546,No Counter,,8/13/2019,1,,
100039547,No Counter,,8/13/2019,1,,
100039548,No Counter,,8/13/2019,1,,
100039549,No Counter,,8/13/2019,1,,
100039550,No Counter,,8/13/2019,1,,
100039551,No Counter,,8/13/2019,1,,
100039552,No Counter,,8/13/2019,1,,
100039553,No Counter,,8/13/2019,1,,
100039554,No Counter,,8/13/2019,1,,
100039555,No Counter,,8/13/2019,1,,
100039556,No Counter,,8/13/2019,1,,
100039557,No Counter,,8/13/2019,1,,
100039558,No Counter,,8/13/2019,1,,
100039559,No Counter,,8/13/2019,1,,
100039560,No Counter,,8/13/2019,1,,
100039561,No Counter,,8/13/2019,1,,
100039562,No Counter,,8/13/2019,1,,
100039563,No Counter,,8/13/2019,1,,
100039564,No Counter,,8/13/2019,1,,
100039565,No Counter,,8/13/2019,1,,
100039566,No Counter,,8/13/2019,1,,
100039567,No Counter,,8/13/2019,1,,
100039568,No Counter,,8/13/2019,1,,
100039569,No Counter,,8/13/2019,1,,
100039570,No Counter,,8/13/2019,1,,
100039571,No Counter,,8/13/2019,1,,
100039572,No Counter,,8/13/2019,1,,
100039573,No Counter,,8/13/2019,1,,
100039574,No Counter,,8/13/2019,1,,
100039575,No Counter,,8/13/2019,1,,
100039576,No Counter,,8/13/2019,1,,
100039577,No Counter,,8/13/2019,1,,
100039578,No Counter,,8/13/2019,1,,
100039579,No Counter,,8/13/2019,1,,
100039580,No Counter,,8/13/2019,1,,
100039581,No Counter,,8/13/2019,1,,
100039582,No Counter,,8/13/2019,1,,
100039583,No Counter,,8/13/2019,1,,
100039584,No Counter,,8/13/2019,1,,
100039585,No Counter,,8/13/2019,1,,
100039586,No Counter,,8/13/2019,1,,
100039587,No Counter,,8/13/2019,1,,
100039588,No Counter,,8/13/2019,1,,
100039589,No Counter,,8/13/2019,1,,
100039590,No Counter,,8/13/2019,1,,
100039591,No Counter,,8/13/2019,1,,
100039592,No Counter,,8/13/2019,1,,
100039593,No Counter,,8/13/2019,1,,
100039594,No Counter,,8/13/2019,1,,
100039595,No Counter,,8/13/2019,1,,
100039596,No Counter,,8/13/2019,1,,
100039597,No Counter,,8/13/2019,1,,
100039598,No Counter,,8/13/2019,1,,
100039599,No Counter,,8/13/2019,1,,
100039600,No Counter,,8/13/2019,1,,
100039601,No Counter,,8/13/2019,1,,
100039602,No Counter,,8/13/2019,1,,
100039603,No Counter,,8/13/2019,1,,
100039604,No Counter,,8/13/2019,1,,
100039605,No Counter,,8/13/2019,1,,
100039606,No Counter,,8/13/2019,1,,
100039607,No Counter,,8/13/2019,1,,
100039608,No Counter,,8/13/2019,1,,
100039609,MacArthur Ave Display,11/23/2017,8/13/2019,1,-35.25991255,149.1280486
100039610,No Counter,,8/13/2019,1,,
100039611,No Counter,,8/13/2019,1,,
100039612,No Counter,,8/13/2019,1,,
100039613,No Counter,,8/13/2019,1,,
100039614,No Counter,,8/13/2019,1,,
100039615,No Counter,,8/13/2019,1,,
100039616,No Counter,,8/13/2019,1,,
100039617,No Counter,,8/13/2019,1,,
100039618,No Counter,,8/13/2019,1,,
100039619,No Counter,,8/13/2019,1,,
100039620,No Counter,,8/13/2019,1,,
100039621,No Counter,,8/13/2019,1,,
100039622,No Counter,,8/13/2019,1,,
100039623,No Counter,,8/13/2019,1,,
100039624,No Counter,,8/13/2019,1,,
100039625,No Counter,,8/13/2019,1,,
100039626,No Counter,,8/13/2019,1,,
100039627,No Counter,,8/13/2019,1,,
100039628,No Counter,,8/13/2019,1,,
100039629,No Counter,,8/13/2019,1,,
100039630,No Counter,,8/13/2019,1,,
100039631,No Counter,,8/13/2019,1,,
100039632,No Counter,,8/13/2019,1,,
100039633,No Counter,,8/13/2019,1,,
100039634,No Counter,,8/13/2019,1,,
100039635,No Counter,,8/13/2019,1,,
100039636,No Counter,,8/13/2019,1,,
100039637,No Counter,,8/13/2019,1,,
100039638,No Counter,,8/13/2019,1,,
100039639,No Counter,,8/13/2019,1,,
100039640,No Counter,,8/13/2019,1,,
100039641,No Counter,,8/13/2019,1,,
100039642,No Counter,,8/13/2019,1,,
100039643,No Counter,,8/13/2019,1,,
100039644,No Counter,,8/13/2019,1,,
100039645,No Counter,,8/13/2019,1,,
100039646,No Counter,,8/13/2019,1,,
100039647,No Counter,,8/13/2019,1,,
100039648,No Counter,,8/13/2019,1,,
100039649,No Counter,,8/13/2019,1,,
100039650,No Counter,,8/13/2019,1,,
100039651,No Counter,,8/13/2019,1,,
100039652,No Counter,,8/13/2019,1,,
100039653,No Counter,,8/13/2019,1,,
100039654,No Counter,,8/13/2019,1,,
100039655,No Counter,,8/13/2019,1,,
100039656,La Pignatta,7/27/2017,8/13/2019,1,48.64765662,-123.4000446
100039657,No Counter,,8/13/2019,1,,
100039658,No Counter,,8/13/2019,1,,
100039659,7-11 Beacon Ave.,7/27/2017,8/13/2019,1,48.64902116,-123.4025498
100039660,No Counter,,8/13/2019,1,,
100039661,Willingdon - Deer Lake Pkwy,2/18/2018,8/13/2019,1,49.24359,-123.00298
100039662,Willingdon - Goard Way,2/18/2018,8/13/2019,1,49.25216,-123.00436
100039663,Willingdon - Sanderson Way,2/18/2018,8/13/2019,1,49.24824,-123.00423
100039664,No Counter,,8/13/2019,1,,
100039665,No Counter,,8/13/2019,1,,
100039666,No Counter,,8/13/2019,1,,
100039667,No Counter,,8/13/2019,1,,
100039668,No Counter,,8/13/2019,1,,
100039669,No Counter,,8/13/2019,1,,
100039670,No Counter,,8/13/2019,1,,
100039671,No Counter,,8/13/2019,1,,
100039672,No Counter,,8/13/2019,1,,
100039673,No Counter,,8/13/2019,1,,
100039674,No Counter,,8/13/2019,1,,
100039675,No Counter,,8/13/2019,1,,
100039676,No Counter,,8/13/2019,1,,
100039677,No Counter,,8/13/2019,1,,
100039678,No Counter,,8/13/2019,1,,
100039679,No Counter,,8/13/2019,1,,
100039680,No Counter,,8/13/2019,1,,
100039681,No Counter,,8/13/2019,1,,
100039682,No Counter,,8/13/2019,1,,
100039683,No Counter,,8/13/2019,1,,
100039684,No Counter,,8/13/2019,1,,
100039685,No Counter,,8/13/2019,1,,
100039686,No Counter,,8/13/2019,1,,
100039687,No Counter,,8/13/2019,1,,
100039688,No Counter,,8/13/2019,1,,
100039689,No Counter,,8/13/2019,1,,
100039690,No Counter,,8/13/2019,1,,
100039691,No Counter,,8/13/2019,1,,
100039692,No Counter,,8/13/2019,1,,
100039693,No Counter,,8/13/2019,1,,
100039694,No Counter,,8/13/2019,1,,
100039695,No Counter,,8/13/2019,1,,
100039696,No Counter,,8/13/2019,1,,
100039697,No Counter,,8/13/2019,1,,
100039698,No Counter,,8/13/2019,1,,
100039699,No Counter,,8/13/2019,1,,
100039700,No Counter,,8/13/2019,1,,
100039701,No Counter,,8/13/2019,1,,
100039702,No Counter,,8/13/2019,1,,
100039703,No Counter,,8/13/2019,1,,
100039704,No Counter,,8/13/2019,1,,
100039705,No Counter,,8/13/2019,1,,
100039706,No Counter,,8/13/2019,1,,
100039707,No Counter,,8/13/2019,1,,
100039708,No Counter,,8/13/2019,1,,
100039709,No Counter,,8/13/2019,1,,
100039710,No Counter,,8/13/2019,1,,
100039711,No Counter,,8/13/2019,1,,
100039712,No Counter,,8/13/2019,1,,
100039713,No Counter,,8/13/2019,1,,
100039714,No Counter,,8/13/2019,1,,
100039715,No Counter,,8/13/2019,1,,
100039716,No Counter,,8/13/2019,1,,
100039717,No Counter,,8/13/2019,1,,
100039718,No Counter,,8/13/2019,1,,
100039719,No Counter,,8/13/2019,1,,
100039720,No Counter,,8/13/2019,1,,
100039721,No Counter,,8/13/2019,1,,
100039722,No Counter,,8/13/2019,1,,
100039723,No Counter,,8/13/2019,1,,
100039724,No Counter,,8/13/2019,1,,
100039725,No Counter,,8/13/2019,1,,
100039726,No Counter,,8/13/2019,1,,
100039727,No Counter,,8/13/2019,1,,
100039728,No Counter,,8/13/2019,1,,
100039729,No Counter,,8/13/2019,1,,
100039730,No Counter,,8/13/2019,1,,
100039731,No Counter,,8/13/2019,1,,
100039732,No Counter,,8/13/2019,1,,
100039733,No Counter,,8/13/2019,1,,
100039734,No Counter,,8/13/2019,1,,
100039735,No Counter,,8/13/2019,1,,
100039736,No Counter,,8/13/2019,1,,
100039737,No Counter,,8/13/2019,1,,
100039738,No Counter,,8/13/2019,1,,
100039739,No Counter,,8/13/2019,1,,
100039740,No Counter,,8/13/2019,1,,
100039741,No Counter,,8/13/2019,1,,
100039742,No Counter,,8/13/2019,1,,
100039743,No Counter,,8/13/2019,1,,
100039744,No Counter,,8/13/2019,1,,
100039745,No Counter,,8/13/2019,1,,
100039746,No Counter,,8/13/2019,1,,
100039747,No Counter,,8/13/2019,1,,
100039748,No Counter,,8/13/2019,1,,
100039749,No Counter,,8/13/2019,1,,
100039750,No Counter,,8/13/2019,1,,
100039751,No Counter,,8/13/2019,1,,
100039752,No Counter,,8/13/2019,1,,
100039753,No Counter,,8/13/2019,1,,
100039754,No Counter,,8/13/2019,1,,
100039755,No Counter,,8/13/2019,1,,
100039756,No Counter,,8/13/2019,1,,
100039757,No Counter,,8/13/2019,1,,
100039758,No Counter,,8/13/2019,1,,
100039759,No Counter,,8/13/2019,1,,
100039760,No Counter,,8/13/2019,1,,
100039761,No Counter,,8/13/2019,1,,
100039762,No Counter,,8/13/2019,1,,
100039763,No Counter,,8/13/2019,1,,
100039764,No Counter,,8/13/2019,1,,
100039765,No Counter,,8/13/2019,1,,
100039766,No Counter,,8/13/2019,1,,
100039767,No Counter,,8/13/2019,1,,
100039768,No Counter,,8/13/2019,1,,
100039769,No Counter,,8/13/2019,1,,
100039770,No Counter,,8/13/2019,1,,
100039771,No Counter,,8/13/2019,1,,
100039772,No Counter,,8/13/2019,1,,
100039773,No Counter,,8/13/2019,1,,
100039774,No Counter,,8/13/2019,1,,
100039775,No Counter,,8/13/2019,1,,
100039776,No Counter,,8/13/2019,1,,
100039777,No Counter,,8/13/2019,1,,
100039778,No Counter,,8/13/2019,1,,
100039779,No Counter,,8/13/2019,1,,
100039780,No Counter,,8/13/2019,1,,
100039781,No Counter,,8/13/2019,1,,
100039782,No Counter,,8/13/2019,1,,
100039783,No Counter,,8/13/2019,1,,
100039784,No Counter,,8/13/2019,1,,
100039785,No Counter,,8/13/2019,1,,
100039786,No Counter,,8/13/2019,1,,
100039787,No Counter,,8/13/2019,1,,
100039788,No Counter,,8/13/2019,1,,
100039789,No Counter,,8/13/2019,1,,
100039790,No Counter,,8/13/2019,1,,
100039791,No Counter,,8/13/2019,1,,
100039792,No Counter,,8/13/2019,1,,
100039793,No Counter,,8/13/2019,1,,
100039794,No Counter,,8/13/2019,1,,
100039795,No Counter,,8/13/2019,1,,
100039796,No Counter,,8/13/2019,1,,
100039797,No Counter,,8/13/2019,1,,
100039798,No Counter,,8/13/2019,1,,
100039799,No Counter,,8/13/2019,1,,
100039800,No Counter,,8/13/2019,1,,
100039801,No Counter,,8/13/2019,1,,
100039802,No Counter,,8/13/2019,1,,
100039803,No Counter,,8/13/2019,1,,
100039804,No Counter,,8/13/2019,1,,
100039805,No Counter,,8/13/2019,1,,
100039806,No Counter,,8/13/2019,1,,
100039807,No Counter,,8/13/2019,1,,
100039808,No Counter,,8/13/2019,1,,
100039809,No Counter,,8/13/2019,1,,
100039810,No Counter,,8/13/2019,1,,
100039811,No Counter,,8/13/2019,1,,
100039812,No Counter,,8/13/2019,1,,
100039813,No Counter,,8/13/2019,1,,
100039814,No Counter,,8/13/2019,1,,
100039815,No Counter,,8/13/2019,1,,
100039816,No Counter,,8/13/2019,1,,
100039817,No Counter,,8/13/2019,1,,
100039818,No Counter,,8/13/2019,1,,
100039819,No Counter,,8/13/2019,1,,
100039820,No Counter,,8/13/2019,1,,
100039821,No Counter,,8/13/2019,1,,
100039822,No Counter,,8/13/2019,1,,
100039823,No Counter,,8/13/2019,1,,
100039824,No Counter,,8/13/2019,1,,
100039825,No Counter,,8/13/2019,1,,
100039826,No Counter,,8/13/2019,1,,
100039827,No Counter,,8/13/2019,1,,
100039828,No Counter,,8/13/2019,1,,
100039829,No Counter,,8/13/2019,1,,
100039830,No Counter,,8/13/2019,1,,
100039831,No Counter,,8/13/2019,1,,
100039832,No Counter,,8/13/2019,1,,
100039833,No Counter,,8/13/2019,1,,
100039834,No Counter,,8/13/2019,1,,
100039835,No Counter,,8/13/2019,1,,
100039836,No Counter,,8/13/2019,1,,
100039837,No Counter,,8/13/2019,1,,
100039838,No Counter,,8/13/2019,1,,
100039839,No Counter,,8/13/2019,1,,
100039840,No Counter,,8/13/2019,1,,
100039841,No Counter,,8/13/2019,1,,
100039842,No Counter,,8/13/2019,1,,
100039843,No Counter,,8/13/2019,1,,
100039844,No Counter,,8/13/2019,1,,
100039845,No Counter,,8/13/2019,1,,
100039846,No Counter,,8/13/2019,1,,
100039847,No Counter,,8/13/2019,1,,
100039848,No Counter,,8/13/2019,1,,
100039849,No Counter,,8/13/2019,1,,
100039850,No Counter,,8/13/2019,1,,
100039851,No Counter,,8/13/2019,1,,
100039852,No Counter,,8/13/2019,1,,
100039853,No Counter,,8/13/2019,1,,
100039854,No Counter,,8/13/2019,1,,
100039855,No Counter,,8/13/2019,1,,
100039856,No Counter,,8/13/2019,1,,
100039857,No Counter,,8/13/2019,1,,
100039858,No Counter,,8/13/2019,1,,
100039859,No Counter,,8/13/2019,1,,
100039860,No Counter,,8/13/2019,1,,
100039861,No Counter,,8/13/2019,1,,
100039862,No Counter,,8/13/2019,1,,
100039863,No Counter,,8/13/2019,1,,
100039864,No Counter,,8/13/2019,1,,
100039865,No Counter,,8/13/2019,1,,
100039866,No Counter,,8/13/2019,1,,
100039867,No Counter,,8/13/2019,1,,
100039868,No Counter,,8/13/2019,1,,
100039869,No Counter,,8/13/2019,1,,
100039870,No Counter,,8/13/2019,1,,
100039871,No Counter,,8/13/2019,1,,
100039872,No Counter,,8/13/2019,1,,
100039873,No Counter,,8/13/2019,1,,
100039874,No Counter,,8/13/2019,1,,
100039875,No Counter,,8/13/2019,1,,
100039876,No Counter,,8/13/2019,1,,
100039877,No Counter,,8/13/2019,1,,
100039878,No Counter,,8/13/2019,1,,
100039879,No Counter,,8/13/2019,1,,
100039880,No Counter,,8/13/2019,1,,
100039881,No Counter,,8/13/2019,1,,
100039882,No Counter,,8/13/2019,1,,
100039883,No Counter,,8/13/2019,1,,
100039884,No Counter,,8/13/2019,1,,
100039885,No Counter,,8/13/2019,1,,
100039886,No Counter,,8/13/2019,1,,
100039887,No Counter,,8/13/2019,1,,
100039888,No Counter,,8/13/2019,1,,
100039889,No Counter,,8/13/2019,1,,
100039890,No Counter,,8/13/2019,1,,
100039891,No Counter,,8/13/2019,1,,
100039892,No Counter,,8/13/2019,1,,
100039893,No Counter,,8/13/2019,1,,
100039894,No Counter,,8/13/2019,1,,
100039895,No Counter,,8/13/2019,1,,
100039896,No Counter,,8/13/2019,1,,
100039897,No Counter,,8/13/2019,1,,
100039898,No Counter,,8/13/2019,1,,
100039899,No Counter,,8/13/2019,1,,
100039900,No Counter,,8/13/2019,1,,
100039901,No Counter,,8/13/2019,1,,
100039902,No Counter,,8/13/2019,1,,
100039903,No Counter,,8/13/2019,1,,
100039904,No Counter,,8/13/2019,1,,
100039905,No Counter,,8/13/2019,1,,
100039906,No Counter,,8/13/2019,1,,
100039907,No Counter,,8/13/2019,1,,
100039908,No Counter,,8/13/2019,1,,
100039909,No Counter,,8/13/2019,1,,
100039910,No Counter,,8/13/2019,1,,
100039911,No Counter,,8/13/2019,1,,
100039912,No Counter,,8/13/2019,1,,
100039913,No Counter,,8/13/2019,1,,
100039914,No Counter,,8/13/2019,1,,
100039915,No Counter,,8/13/2019,1,,
100039916,No Counter,,8/13/2019,1,,
100039917,No Counter,,8/13/2019,1,,
100039918,No Counter,,8/13/2019,1,,
100039919,No Counter,,8/13/2019,1,,
100039920,No Counter,,8/13/2019,1,,
100039921,No Counter,,8/13/2019,1,,
100039922,No Counter,,8/13/2019,1,,
100039923,No Counter,,8/13/2019,1,,
100039924,No Counter,,8/13/2019,1,,
100039925,No Counter,,8/13/2019,1,,
100039926,No Counter,,8/13/2019,1,,
100039927,No Counter,,8/13/2019,1,,
100039928,No Counter,,8/13/2019,1,,
100039929,No Counter,,8/13/2019,1,,
100039930,No Counter,,8/13/2019,1,,
100039931,No Counter,,8/13/2019,1,,
100039932,No Counter,,8/13/2019,1,,
100039933,No Counter,,8/13/2019,1,,
100039934,No Counter,,8/13/2019,1,,
100039935,No Counter,,8/13/2019,1,,
100039936,No Counter,,8/13/2019,1,,
100039937,No Counter,,8/13/2019,1,,
100039938,No Counter,,8/13/2019,1,,
100039939,No Counter,,8/13/2019,1,,
100039940,No Counter,,8/13/2019,1,,
100039941,No Counter,,8/13/2019,1,,
100039942,No Counter,,8/13/2019,1,,
100039943,No Counter,,8/13/2019,1,,
100039944,No Counter,,8/13/2019,1,,
100039945,No Counter,,8/13/2019,1,,
100039946,No Counter,,8/13/2019,1,,
100039947,No Counter,,8/13/2019,1,,
100039948,No Counter,,8/13/2019,1,,
100039949,No Counter,,8/13/2019,1,,
100039950,No Counter,,8/13/2019,1,,
100039951,No Counter,,8/13/2019,1,,
100039952,No Counter,,8/13/2019,1,,
100039953,No Counter,,8/13/2019,1,,
100039954,No Counter,,8/13/2019,1,,
100039955,No Counter,,8/13/2019,1,,
100039956,No Counter,,8/13/2019,1,,
100039957,No Counter,,8/13/2019,1,,
100039958,No Counter,,8/13/2019,1,,
100039959,No Counter,,8/13/2019,1,,
100039960,No Counter,,8/13/2019,1,,
100039961,No Counter,,8/13/2019,1,,
100039962,No Counter,,8/13/2019,1,,
100039963,No Counter,,8/13/2019,1,,
100039964,No Counter,,8/13/2019,1,,
100039965,No Counter,,8/13/2019,1,,
100039966,No Counter,,8/13/2019,1,,
100039967,No Counter,,8/13/2019,1,,
100039968,No Counter,,8/13/2019,1,,
100039969,No Counter,,8/13/2019,1,,
100039970,No Counter,,8/13/2019,1,,
100039971,No Counter,,8/13/2019,1,,
100039972,No Counter,,8/13/2019,1,,
100039973,No Counter,,8/13/2019,1,,
100039974,No Counter,,8/13/2019,1,,
100039975,No Counter,,8/13/2019,1,,
100039976,No Counter,,8/13/2019,1,,
100039977,No Counter,,8/13/2019,1,,
100039978,No Counter,,8/13/2019,1,,
100039979,No Counter,,8/13/2019,1,,
100039980,No Counter,,8/13/2019,1,,
100039981,No Counter,,8/13/2019,1,,
100039982,No Counter,,8/13/2019,1,,
100039983,No Counter,,8/13/2019,1,,
100039984,No Counter,,8/13/2019,1,,
100039985,No Counter,,8/13/2019,1,,
100039986,No Counter,,8/13/2019,1,,
100039987,No Counter,,8/13/2019,1,,
100039988,No Counter,,8/13/2019,1,,
100039989,No Counter,,8/13/2019,1,,
100039990,No Counter,,8/13/2019,1,,
100039991,No Counter,,8/13/2019,1,,
100039992,No Counter,,8/13/2019,1,,
100039993,No Counter,,8/13/2019,1,,
100039994,No Counter,,8/13/2019,1,,
100039995,No Counter,,8/13/2019,1,,
100039996,No Counter,,8/13/2019,1,,
100039997,No Counter,,8/13/2019,1,,
100039998,No Counter,,8/13/2019,1,,
100039999,No Counter,,8/13/2019,1,,
100040000,No Counter,,8/13/2019,1,,
100040001,No Counter,,8/13/2019,1,,
100040002,No Counter,,8/13/2019,1,,
100040003,No Counter,,8/13/2019,1,,
100040004,No Counter,,8/13/2019,1,,
100040005,No Counter,,8/13/2019,1,,
100040006,No Counter,,8/13/2019,1,,
100040007,No Counter,,8/13/2019,1,,
100040008,No Counter,,8/13/2019,1,,
100040009,No Counter,,8/13/2019,1,,
100040010,No Counter,,8/13/2019,1,,
100040011,No Counter,,8/13/2019,1,,
100040012,No Counter,,8/13/2019,1,,
100040013,No Counter,,8/13/2019,1,,
100040014,No Counter,,8/13/2019,1,,
100040015,No Counter,,8/13/2019,1,,
100040016,No Counter,,8/13/2019,1,,
100040017,No Counter,,8/13/2019,1,,
100040018,No Counter,,8/13/2019,1,,
100040019,No Counter,,8/13/2019,1,,
100040020,No Counter,,8/13/2019,1,,
100040021,No Counter,,8/13/2019,1,,
100040022,No Counter,,8/13/2019,1,,
100040023,No Counter,,8/13/2019,1,,
100040024,No Counter,,8/13/2019,1,,
100040025,No Counter,,8/13/2019,1,,
100040026,No Counter,,8/13/2019,1,,
100040027,No Counter,,8/13/2019,1,,
100040028,No Counter,,8/13/2019,1,,
100040029,No Counter,,8/13/2019,1,,
100040030,No Counter,,8/13/2019,1,,
100040031,No Counter,,8/13/2019,1,,
100040032,No Counter,,8/13/2019,1,,
100040033,No Counter,,8/13/2019,1,,
100040034,No Counter,,8/13/2019,1,,
100040035,No Counter,,8/13/2019,1,,
100040036,No Counter,,8/13/2019,1,,
100040037,No Counter,,8/13/2019,1,,
100040038,No Counter,,8/13/2019,1,,
100040039,No Counter,,8/13/2019,1,,
100040040,No Counter,,8/13/2019,1,,
100040041,No Counter,,8/13/2019,1,,
100040042,No Counter,,8/13/2019,1,,
100040043,No Counter,,8/13/2019,1,,
100040044,No Counter,,8/13/2019,1,,
100040045,No Counter,,8/13/2019,1,,
100040046,No Counter,,8/13/2019,1,,
100040047,No Counter,,8/13/2019,1,,
100040048,No Counter,,8/13/2019,1,,
100040049,No Counter,,8/13/2019,1,,
100040050,No Counter,,8/13/2019,1,,
100040051,No Counter,,8/13/2019,1,,
100040052,No Counter,,8/13/2019,1,,
100040053,No Counter,,8/13/2019,1,,
100040054,No Counter,,8/13/2019,1,,
100040055,No Counter,,8/13/2019,1,,
100040056,No Counter,,8/13/2019,1,,
100040057,No Counter,,8/13/2019,1,,
100040058,No Counter,,8/13/2019,1,,
100040059,No Counter,,8/13/2019,1,,
100040060,No Counter,,8/13/2019,1,,
100040061,No Counter,,8/13/2019,1,,
100040062,No Counter,,8/13/2019,1,,
100040063,No Counter,,8/13/2019,1,,
100040064,No Counter,,8/13/2019,1,,
100040065,No Counter,,8/13/2019,1,,
100040066,No Counter,,8/13/2019,1,,
100040067,No Counter,,8/13/2019,1,,
100040068,No Counter,,8/13/2019,1,,
100040069,No Counter,,8/13/2019,1,,
100040070,No Counter,,8/13/2019,1,,
100040071,No Counter,,8/13/2019,1,,
100040072,No Counter,,8/13/2019,1,,
100040073,No Counter,,8/13/2019,1,,
100040074,No Counter,,8/13/2019,1,,
100040075,No Counter,,8/13/2019,1,,
100040076,No Counter,,8/13/2019,1,,
100040077,No Counter,,8/13/2019,1,,
100040078,No Counter,,8/13/2019,1,,
100040079,No Counter,,8/13/2019,1,,
100040080,No Counter,,8/13/2019,1,,
100040081,No Counter,,8/13/2019,1,,
100040082,No Counter,,8/13/2019,1,,
100040083,No Counter,,8/13/2019,1,,
100040084,No Counter,,8/13/2019,1,,
100040085,No Counter,,8/13/2019,1,,
100040086,No Counter,,8/13/2019,1,,
100040087,No Counter,,8/13/2019,1,,
100040088,No Counter,,8/13/2019,1,,
100040089,No Counter,,8/13/2019,1,,
100040090,No Counter,,8/13/2019,1,,
100040091,No Counter,,8/13/2019,1,,
100040092,No Counter,,8/13/2019,1,,
100040093,No Counter,,8/13/2019,1,,
100040094,No Counter,,8/13/2019,1,,
100040095,No Counter,,8/13/2019,1,,
100040096,No Counter,,8/13/2019,1,,
100040097,No Counter,,8/13/2019,1,,
100040098,No Counter,,8/13/2019,1,,
100040099,No Counter,,8/13/2019,1,,
100040100,No Counter,,8/13/2019,1,,
100040101,No Counter,,8/13/2019,1,,
100040102,No Counter,,8/13/2019,1,,
100040103,No Counter,,8/13/2019,1,,
100040104,No Counter,,8/13/2019,1,,
100040105,No Counter,,8/13/2019,1,,
100040106,No Counter,,8/13/2019,1,,
100040107,No Counter,,8/13/2019,1,,
100040108,No Counter,,8/13/2019,1,,
100040109,Bicivia 7,3/14/2018,8/13/2019,1,41.3832133,2.106744716
100040110,No Counter,,8/13/2019,1,,
100040111,No Counter,,8/13/2019,1,,
100040112,No Counter,,8/13/2019,1,,
100040113,No Counter,,8/13/2019,1,,
100040114,No Counter,,8/13/2019,1,,
100040115,No Counter,,8/13/2019,1,,
100040116,No Counter,,8/13/2019,1,,
100040117,No Counter,,8/13/2019,1,,
100040118,No Counter,,8/13/2019,1,,
100040119,No Counter,,8/13/2019,1,,
100040120,No Counter,,8/13/2019,1,,
100040121,No Counter,,8/13/2019,1,,
100040122,No Counter,,8/13/2019,1,,
100040123,No Counter,,8/13/2019,1,,
100040124,No Counter,,8/13/2019,1,,
100040125,No Counter,,8/13/2019,1,,
100040126,No Counter,,8/13/2019,1,,
100040127,No Counter,,8/13/2019,1,,
100040128,No Counter,,8/13/2019,1,,
100040129,No Counter,,8/13/2019,1,,
100040130,No Counter,,8/13/2019,1,,
100040131,No Counter,,8/13/2019,1,,
100040132,No Counter,,8/13/2019,1,,
100040133,No Counter,,8/13/2019,1,,
100040134,No Counter,,8/13/2019,1,,
100040135,High Rock Park_Blue & Yellow_Trail,1/16/2019,8/13/2019,1,40.79162052,-73.93507426
100040136,No Counter,,8/13/2019,1,,
100040137,No Counter,,8/13/2019,1,,
100040138,No Counter,,8/13/2019,1,,
100040139,No Counter,,8/13/2019,1,,
100040140,No Counter,,8/13/2019,1,,
100040141,No Counter,,8/13/2019,1,,
100040142,No Counter,,8/13/2019,1,,
100040143,No Counter,,8/13/2019,1,,
100040144,No Counter,,8/13/2019,1,,
100040145,No Counter,,8/13/2019,1,,
100040146,No Counter,,8/13/2019,1,,
100040147,No Counter,,8/13/2019,1,,
100040148,No Counter,,8/13/2019,1,,
100040149,No Counter,,8/13/2019,1,,
100040150,No Counter,,8/13/2019,1,,
100040151,No Counter,,8/13/2019,1,,
100040152,No Counter,,8/13/2019,1,,
100040153,No Counter,,8/13/2019,1,,
100040154,No Counter,,8/13/2019,1,,
100040155,No Counter,,8/13/2019,1,,
100040156,No Counter,,8/13/2019,1,,
100040157,No Counter,,8/13/2019,1,,
100040158,No Counter,,8/13/2019,1,,
100040159,No Counter,,8/13/2019,1,,
100040160,No Counter,,8/13/2019,1,,
100040161,No Counter,,8/13/2019,1,,
100040162,No Counter,,8/13/2019,1,,
100040163,No Counter,,8/13/2019,1,,
100040164,No Counter,,8/13/2019,1,,
100040165,No Counter,,8/13/2019,1,,
100040166,No Counter,,8/13/2019,1,,
100040167,No Counter,,8/13/2019,1,,
100040168,No Counter,,8/13/2019,1,,
100040169,No Counter,,8/13/2019,1,,
100040170,No Counter,,8/13/2019,1,,
100040171,No Counter,,8/13/2019,1,,
100040172,No Counter,,8/13/2019,1,,
100040173,No Counter,,8/13/2019,1,,
100040174,No Counter,,8/13/2019,1,,
100040175,No Counter,,8/13/2019,1,,
100040176,No Counter,,8/13/2019,1,,
100040177,No Counter,,8/13/2019,1,,
100040178,No Counter,,8/13/2019,1,,
100040179,No Counter,,8/13/2019,1,,
100040180,No Counter,,8/13/2019,1,,
100040181,No Counter,,8/13/2019,1,,
100040182,No Counter,,8/13/2019,1,,
100040183,No Counter,,8/13/2019,1,,
100040184,No Counter,,8/13/2019,1,,
100040185,No Counter,,8/13/2019,1,,
100040186,No Counter,,8/13/2019,1,,
100040187,No Counter,,8/13/2019,1,,
100040188,No Counter,,8/13/2019,1,,
100040189,No Counter,,8/15/2019,1,,
100040189,No Counter,,8/13/2019,0,,
100040190,Apache South Site,1/3/2018,8/15/2019,1,33.41486337,-111.9348541
100040191,Forest North Site,1/4/2018,8/15/2019,1,33.42182202,-111.9366657
100040192,No Counter,,8/15/2019,1,,
100040193,LaTourette Park--GNC Trail/Bridge,8/1/2018,8/15/2019,1,40.76760988,-73.97130226
100040194,No Counter,,8/15/2019,1,,
100040195,No Counter,,8/15/2019,1,,
100040196,No Counter,,8/15/2019,1,,
100040197,No Counter,,8/15/2019,1,,
100040198,No Counter,,8/15/2019,1,,
100040199,No Counter,,8/15/2019,1,,
100040200,No Counter,,8/15/2019,1,,
100040201,No Counter,,8/15/2019,1,,
100040202,No Counter,,8/15/2019,1,,
100040203,No Counter,,8/15/2019,1,,
100040204,No Counter,,8/15/2019,1,,
100040205,No Counter,,8/15/2019,1,,
100040206,No Counter,,8/15/2019,1,,
100040207,No Counter,,8/15/2019,1,,
100040208,No Counter,,8/15/2019,1,,
100040209,No Counter,,8/15/2019,1,,
100040210,No Counter,,8/15/2019,1,,
100040211,No Counter,,8/15/2019,1,,
100040212,No Counter,,8/15/2019,1,,
100040213,No Counter,,8/15/2019,1,,
100040214,No Counter,,8/15/2019,1,,
100040215,No Counter,,8/15/2019,1,,
100040216,No Counter,,8/15/2019,1,,
100040217,No Counter,,8/15/2019,1,,
100040218,No Counter,,8/15/2019,1,,
100040219,No Counter,,8/15/2019,1,,
100040220,No Counter,,8/15/2019,1,,
100040221,No Counter,,8/15/2019,1,,
100040222,No Counter,,8/15/2019,1,,
100040223,No Counter,,8/15/2019,1,,
100040224,No Counter,,8/15/2019,1,,
100040225,No Counter,,8/15/2019,1,,
100040226,No Counter,,8/15/2019,1,,
100040227,No Counter,,8/15/2019,1,,
100040228,No Counter,,8/15/2019,1,,
100040229,No Counter,,8/15/2019,1,,
100040230,No Counter,,8/15/2019,1,,
100040231,No Counter,,8/15/2019,1,,
100040232,No Counter,,8/15/2019,1,,
100040233,No Counter,,8/15/2019,1,,
100040234,No Counter,,8/15/2019,1,,
100040235,No Counter,,8/15/2019,1,,
100040236,No Counter,,8/15/2019,1,,
100040237,No Counter,,8/15/2019,1,,
100040238,No Counter,,8/15/2019,1,,
100040239,No Counter,,8/15/2019,1,,
100040240,No Counter,,8/15/2019,1,,
100040241,No Counter,,8/15/2019,1,,
100040242,No Counter,,8/15/2019,1,,
100040243,No Counter,,8/15/2019,1,,
100040244,No Counter,,8/15/2019,1,,
100040245,No Counter,,8/15/2019,1,,
100040246,No Counter,,8/15/2019,1,,
100040247,No Counter,,8/15/2019,1,,
100040248,No Counter,,8/15/2019,1,,
100040249,No Counter,,8/15/2019,1,,
100040250,No Counter,,8/15/2019,1,,
100040251,No Counter,,8/15/2019,1,,
100040252,No Counter,,8/15/2019,1,,
100040253,No Counter,,8/15/2019,1,,
100040254,No Counter,,8/15/2019,1,,
100040255,No Counter,,8/15/2019,1,,
100040256,No Counter,,8/15/2019,1,,
100040257,No Counter,,8/15/2019,1,,
100040258,No Counter,,8/15/2019,1,,
100040259,No Counter,,8/15/2019,1,,
100040260,No Counter,,8/15/2019,1,,
100040261,No Counter,,8/15/2019,1,,
100040262,No Counter,,8/15/2019,1,,
100040263,No Counter,,8/15/2019,1,,
100040264,No Counter,,8/15/2019,1,,
100040265,No Counter,,8/15/2019,1,,
100040266,No Counter,,8/15/2019,1,,
100040267,No Counter,,8/15/2019,1,,
100040268,No Counter,,8/15/2019,1,,
100040269,No Counter,,8/15/2019,1,,
100040270,No Counter,,8/15/2019,1,,
100040271,No Counter,,8/15/2019,1,,
100040272,No Counter,,8/15/2019,1,,
100040273,No Counter,,8/15/2019,1,,
100040274,No Counter,,8/15/2019,1,,
100040275,No Counter,,8/15/2019,1,,
100040276,No Counter,,8/15/2019,1,,
100040277,No Counter,,8/15/2019,1,,
100040278,No Counter,,8/15/2019,1,,
100040279,No Counter,,8/15/2019,1,,
100040280,No Counter,,8/15/2019,1,,
100040281,No Counter,,8/15/2019,1,,
100040282,No Counter,,8/15/2019,1,,
100040283,No Counter,,8/15/2019,1,,
100040284,No Counter,,8/15/2019,1,,
100040285,No Counter,,8/15/2019,1,,
100040286,No Counter,,8/15/2019,1,,
100040287,No Counter,,8/15/2019,1,,
100040288,No Counter,,8/15/2019,1,,
100040289,No Counter,,8/15/2019,1,,
100040290,No Counter,,8/15/2019,1,,
100040291,No Counter,,8/15/2019,1,,
100040292,No Counter,,8/15/2019,1,,
100040293,No Counter,,8/15/2019,1,,
100040294,No Counter,,8/15/2019,1,,
100040295,No Counter,,8/15/2019,1,,
100040296,No Counter,,8/15/2019,1,,
100040297,No Counter,,8/15/2019,1,,
100040298,No Counter,,8/15/2019,1,,
100040299,No Counter,,8/15/2019,1,,
100040300,No Counter,,8/15/2019,1,,
100040301,No Counter,,8/15/2019,1,,
100040302,No Counter,,8/15/2019,1,,
100040303,No Counter,,8/15/2019,1,,
100040304,No Counter,,8/15/2019,1,,
100040305,No Counter,,8/15/2019,1,,
100040306,No Counter,,8/15/2019,1,,
100040307,No Counter,,8/15/2019,1,,
100040308,No Counter,,8/15/2019,1,,
100040309,No Counter,,8/15/2019,1,,
100040310,No Counter,,8/15/2019,1,,
100040311,No Counter,,8/15/2019,1,,
100040312,No Counter,,8/15/2019,1,,
100040313,No Counter,,8/15/2019,1,,
100040314,No Counter,,8/15/2019,1,,
100040315,No Counter,,8/15/2019,1,,
100040316,No Counter,,8/15/2019,1,,
100040317,No Counter,,8/15/2019,1,,
100040318,No Counter,,8/15/2019,1,,
100040319,No Counter,,8/15/2019,1,,
100040320,No Counter,,8/15/2019,1,,
100040321,No Counter,,8/15/2019,1,,
100040322,No Counter,,8/15/2019,1,,
100040323,No Counter,,8/15/2019,1,,
100040324,No Counter,,8/15/2019,1,,
100040325,No Counter,,8/15/2019,1,,
100040326,No Counter,,8/15/2019,1,,
100040327,No Counter,,8/15/2019,1,,
100040328,No Counter,,8/15/2019,1,,
100040329,No Counter,,8/15/2019,1,,
100040330,No Counter,,8/15/2019,1,,
100040331,No Counter,,8/15/2019,1,,
100040332,No Counter,,8/15/2019,1,,
100040333,No Counter,,8/15/2019,1,,
100040334,No Counter,,8/15/2019,1,,
100040335,No Counter,,8/15/2019,1,,
100040336,No Counter,,8/15/2019,1,,
100040337,No Counter,,8/15/2019,1,,
100040338,No Counter,,8/15/2019,1,,
100040339,No Counter,,8/15/2019,1,,
100040340,No Counter,,8/15/2019,1,,
100040341,No Counter,,8/15/2019,1,,
100040342,No Counter,,8/15/2019,1,,
100040343,No Counter,,8/15/2019,1,,
100040344,No Counter,,8/15/2019,1,,
100040345,No Counter,,8/15/2019,1,,
100040346,No Counter,,8/15/2019,1,,
100040347,No Counter,,8/15/2019,1,,
100040348,No Counter,,8/15/2019,1,,
100040349,No Counter,,8/15/2019,1,,
100040350,No Counter,,8/15/2019,1,,
100040351,No Counter,,8/15/2019,1,,
100040352,No Counter,,8/15/2019,1,,
100040353,No Counter,,8/15/2019,1,,
100040354,No Counter,,8/15/2019,1,,
100040355,No Counter,,8/15/2019,1,,
100040356,No Counter,,8/15/2019,1,,
100040357,No Counter,,8/15/2019,1,,
100040358,No Counter,,8/15/2019,1,,
100040359,No Counter,,8/15/2019,1,,
100040360,No Counter,,8/15/2019,1,,
100040361,No Counter,,8/15/2019,1,,
100040362,No Counter,,8/15/2019,1,,
100040363,No Counter,,8/15/2019,1,,
100040364,No Counter,,8/15/2019,1,,
100040365,No Counter,,8/15/2019,1,,
100040366,No Counter,,8/15/2019,1,,
100040367,No Counter,,8/15/2019,1,,
100040368,No Counter,,8/15/2019,1,,
100040369,No Counter,,8/15/2019,1,,
100040370,No Counter,,8/15/2019,1,,
100040371,No Counter,,8/15/2019,1,,
100040372,No Counter,,8/15/2019,1,,
100040373,No Counter,,8/15/2019,1,,
100040374,No Counter,,8/15/2019,1,,
100040375,No Counter,,8/15/2019,1,,
100040376,No Counter,,8/15/2019,1,,
100040377,No Counter,,8/15/2019,1,,
100040378,No Counter,,8/15/2019,1,,
100040379,No Counter,,8/15/2019,1,,
100040380,No Counter,,8/15/2019,1,,
100040381,No Counter,,8/15/2019,1,,
100040382,No Counter,,8/15/2019,1,,
100040383,No Counter,,8/15/2019,1,,
100040384,No Counter,,8/15/2019,1,,
100040385,No Counter,,8/15/2019,1,,
100040386,No Counter,,8/15/2019,1,,
100040387,No Counter,,8/15/2019,1,,
100040388,No Counter,,8/15/2019,1,,
100040389,No Counter,,8/15/2019,1,,
100040390,No Counter,,8/15/2019,1,,
100040391,No Counter,,8/15/2019,1,,
100040392,No Counter,,8/15/2019,1,,
100040393,No Counter,,8/15/2019,1,,
100040394,No Counter,,8/15/2019,1,,
100040395,No Counter,,8/15/2019,1,,
100040396,No Counter,,8/15/2019,1,,
100040397,No Counter,,8/15/2019,1,,
100040398,No Counter,,8/15/2019,1,,
100040399,No Counter,,8/15/2019,1,,
100040400,No Counter,,8/15/2019,1,,
100040401,No Counter,,8/15/2019,1,,
100040402,No Counter,,8/15/2019,1,,
100040403,No Counter,,8/15/2019,1,,
100040404,No Counter,,8/15/2019,1,,
100040405,No Counter,,8/15/2019,1,,
100040406,No Counter,,8/15/2019,1,,
100040407,No Counter,,8/15/2019,1,,
100040408,No Counter,,8/15/2019,1,,
100040409,No Counter,,8/15/2019,1,,
100040410,No Counter,,8/15/2019,1,,
100040411,No Counter,,8/15/2019,1,,
100040412,No Counter,,8/15/2019,1,,
100040413,No Counter,,8/15/2019,1,,
100040414,No Counter,,8/15/2019,1,,
100040415,No Counter,,8/15/2019,1,,
100040416,No Counter,,8/15/2019,1,,
100040417,No Counter,,8/15/2019,1,,
100040418,No Counter,,8/15/2019,1,,
100040419,No Counter,,8/15/2019,1,,
100040420,No Counter,,8/15/2019,1,,
100040421,No Counter,,8/15/2019,1,,
100040422,No Counter,,8/15/2019,1,,
100040423,No Counter,,8/15/2019,1,,
100040424,No Counter,,8/15/2019,1,,
100040425,No Counter,,8/15/2019,1,,
100040426,No Counter,,8/15/2019,1,,
100040427,No Counter,,8/15/2019,1,,
100040428,No Counter,,8/15/2019,1,,
100040429,No Counter,,8/15/2019,1,,
100040430,No Counter,,8/15/2019,1,,
100040431,No Counter,,8/15/2019,1,,
100040432,No Counter,,8/15/2019,1,,
100040433,No Counter,,8/15/2019,1,,
100040434,No Counter,,8/15/2019,1,,
100040435,No Counter,,8/15/2019,1,,
100040436,No Counter,,8/15/2019,1,,
100040437,No Counter,,8/15/2019,1,,
100040438,No Counter,,8/15/2019,1,,
100040439,No Counter,,8/15/2019,1,,
100040440,No Counter,,8/15/2019,1,,
100040441,No Counter,,8/15/2019,1,,
100040442,No Counter,,8/15/2019,1,,
100040443,No Counter,,8/15/2019,1,,
100040444,No Counter,,8/15/2019,1,,
100040445,No Counter,,8/15/2019,1,,
100040446,No Counter,,8/15/2019,1,,
100040447,No Counter,,8/15/2019,1,,
100040448,No Counter,,8/15/2019,1,,
100040449,No Counter,,8/15/2019,1,,
100040450,No Counter,,8/15/2019,1,,
100040451,No Counter,,8/15/2019,1,,
100040452,No Counter,,8/15/2019,1,,
100040453,No Counter,,8/15/2019,1,,
100040454,No Counter,,8/15/2019,1,,
100040455,No Counter,,8/15/2019,1,,
100040456,No Counter,,8/15/2019,1,,
100040457,No Counter,,8/15/2019,1,,
100040458,No Counter,,8/15/2019,1,,
100040459,No Counter,,8/15/2019,1,,
100040460,No Counter,,8/15/2019,1,,
100040461,No Counter,,8/15/2019,1,,
100040462,No Counter,,8/15/2019,1,,
100040463,No Counter,,8/15/2019,1,,
100040464,No Counter,,8/15/2019,1,,
100040465,No Counter,,8/15/2019,1,,
100040466,No Counter,,8/15/2019,1,,
100040467,No Counter,,8/15/2019,1,,
100040468,No Counter,,8/15/2019,1,,
100040469,No Counter,,8/15/2019,1,,
100040470,No Counter,,8/15/2019,1,,
100040471,No Counter,,8/15/2019,1,,
100040472,No Counter,,8/15/2019,1,,
100040473,No Counter,,8/15/2019,1,,
100040474,No Counter,,8/15/2019,1,,
100040475,No Counter,,8/15/2019,1,,
100040476,Ulrichsbrücke,1/1/2017,8/15/2019,1,48.37601197,10.91323737
100040477,No Counter,,8/15/2019,1,,
100040478,No Counter,,8/15/2019,1,,
100040479,No Counter,,8/15/2019,1,,
100040480,No Counter,,8/15/2019,1,,
100040481,No Counter,,8/15/2019,1,,
100040482,No Counter,,8/15/2019,1,,
100040483,No Counter,,8/15/2019,1,,
100040484,No Counter,,8/15/2019,1,,
100040485,No Counter,,8/15/2019,1,,
100040486,No Counter,,8/15/2019,1,,
100040487,No Counter,,8/15/2019,1,,
100040488,No Counter,,8/15/2019,1,,
100040489,No Counter,,8/15/2019,1,,
100040490,No Counter,,8/15/2019,1,,
100040491,No Counter,,8/15/2019,1,,
100040492,No Counter,,8/15/2019,1,,
100040493,No Counter,,8/15/2019,1,,
100040494,No Counter,,8/15/2019,1,,
100040495,No Counter,,8/15/2019,1,,
100040496,No Counter,,8/15/2019,1,,
100040497,No Counter,,8/15/2019,1,,
100040498,No Counter,,8/15/2019,1,,
100040499,No Counter,,8/15/2019,1,,
100040500,No Counter,,8/15/2019,1,,
100040501,No Counter,,8/15/2019,1,,
100040502,No Counter,,8/15/2019,1,,
100040503,No Counter,,8/15/2019,1,,
100040504,No Counter,,8/15/2019,1,,
100040505,No Counter,,8/15/2019,1,,
100040506,No Counter,,8/15/2019,1,,
100040507,No Counter,,8/15/2019,1,,
100040508,No Counter,,8/15/2019,1,,
100040509,No Counter,,8/15/2019,1,,
100040510,No Counter,,8/15/2019,1,,
100040511,No Counter,,8/15/2019,1,,
100040512,No Counter,,8/15/2019,1,,
100040513,No Counter,,8/15/2019,1,,
100040514,No Counter,,8/15/2019,1,,
100040515,No Counter,,8/15/2019,1,,
100040516,No Counter,,8/15/2019,1,,
100040517,No Counter,,8/15/2019,1,,
100040518,No Counter,,8/15/2019,1,,
100040519,No Counter,,8/15/2019,1,,
100040520,No Counter,,8/15/2019,1,,
100040521,No Counter,,8/15/2019,1,,
100040522,No Counter,,8/15/2019,1,,
100040523,No Counter,,8/15/2019,1,,
100040524,No Counter,,8/15/2019,1,,
100040525,No Counter,,8/15/2019,1,,
100040526,No Counter,,8/15/2019,1,,
100040527,No Counter,,8/15/2019,1,,
100040528,No Counter,,8/15/2019,1,,
100040529,No Counter,,8/15/2019,1,,
